[{"name":"Uisang Bong Heliport","code":"N\/A","lat":35.67879,"lng":126.591226,"city":"","country":"KR"},{"name":"Palgong San Heliport","code":"N\/A","lat":36.024612,"lng":128.696181,"city":"Dongsan-ri","country":"KR"},{"name":"Irwol San Heliport","code":"N\/A","lat":36.803357,"lng":129.101661,"city":"Irwolsan","country":"KR"},{"name":"Ganghwa Do Heliport","code":"N\/A","lat":37.767488,"lng":126.437163,"city":"","country":"KR"},{"name":"Mangilsan Heliport","code":"N\/A","lat":36.937165,"lng":126.44451,"city":"Mangilsan-ro","country":"KR"},{"name":"C 503 Heliport","code":"N\/A","lat":36.4305555556,"lng":127.449722222,"city":"Camp Ames","country":"KR"},{"name":"C 137 Heliport","code":"N\/A","lat":37.840542,"lng":126.939267,"city":"","country":"KR"},{"name":"Jukbyeon Emergency Airstrip","code":"N\/A","lat":37.059527,"lng":129.409289,"city":"Jukbyeon-myeon","country":"KR"},{"name":"Panmunjom Helipad (H-128)","code":"N\/A","lat":37.954616,"lng":126.677261,"city":"Panmunjom","country":"KR"},{"name":"Daejon Government Heliport","code":"N\/A","lat":36.362654,"lng":127.382838,"city":"Daejon","country":"KR"},{"name":"Chulmae Heliport","code":"N\/A","lat":36.302602,"lng":126.526338,"city":"Chulmae","country":"KR"},{"name":"Nonsan Training Group Heliport","code":"N\/A","lat":36.111924,"lng":127.106763,"city":"Jindeung-gil","country":"KR"},{"name":"Korean International Circuit Heliport","code":"N\/A","lat":34.730671,"lng":126.424817,"city":"Mokpo","country":"KR"},{"name":"Yeongam Airport","code":"N\/A","lat":34.695967,"lng":126.519542,"city":"Yeongam","country":"KR"},{"name":"Chuja Port Heliport","code":"JCJ","lat":33.941188,"lng":126.324899,"city":"Chuja, Hach\u2019uja-do (Chujado Islands)","country":"KR"},{"name":"Taes\u014f-ri Heliport","code":"N\/A","lat":33.965208,"lng":126.291626,"city":"Taes\u014f-ri, Sangch\u2019uja-do (Chujado Islands)","country":"KR"},{"name":"Seogwipo Heliport","code":"N\/A","lat":33.238636,"lng":126.567154,"city":"Seogwipo","country":"KR"},{"name":"Jeju Island Naval Base Heliport","code":"N\/A","lat":33.227151,"lng":126.480542,"city":"Gangjeong","country":"KR"},{"name":"Busan (Jakjeon) Naval Base Heliport","code":"N\/A","lat":35.096114,"lng":129.102606,"city":"Yongho-dong, Nam-Gu, Busan","country":"KR"},{"name":"Bukpo-ri Heliport","code":"N\/A","lat":37.955365,"lng":124.669247,"city":"Bukpo-ri, Baengnyeongdo","country":"KR"},{"name":"Okchuk-tong Heliport","code":"N\/A","lat":37.843934,"lng":124.705631,"city":"Okchuk-tong, Daecheongdo","country":"KR"},{"name":"N-209 Helipad","code":"N\/A","lat":37.775082,"lng":124.756558,"city":"Socheongdo","country":"KR"},{"name":"Yeonpyeong-Myeon Heliport","code":"N\/A","lat":37.664068,"lng":125.69797,"city":"Yeonpyeong-Myeon, Yeonpyeongdo","country":"KR"},{"name":"Seohanri Helipad","code":"N\/A","lat":37.772865,"lng":126.206976,"city":"Seohanri, Gyodongdo","country":"KR"},{"name":"Seogeom-ri Helipad","code":"N\/A","lat":37.720786,"lng":126.218855,"city":"Seogeom-ri, Seogeomdo","country":"KR"},{"name":"Mibeop Helipad","code":"N\/A","lat":37.725666,"lng":126.269817,"city":"Mibeop, Mibeopdo,","country":"KR"},{"name":"Palhakgol Helipad","code":"N\/A","lat":37.735647,"lng":126.832934,"city":"Palhakgol","country":"KR"},{"name":"Irwolbong Helipad","code":"N\/A","lat":37.910285,"lng":126.813988,"city":"Irwolbong","country":"KR"},{"name":"377th Medical Company (AA) Dustoff - Flight Line","code":"N\/A","lat":37.766883,"lng":127.03826,"city":"Camp Mosier","country":"KR"},{"name":"ROK Army 102nd Armor Brigade Heliport","code":"N\/A","lat":38.145239,"lng":128.602998,"city":"Jeongam-ri, Ganghyeon-myeon","country":"KR"},{"name":"Barami Heliport","code":"N\/A","lat":36.538946,"lng":128.72847,"city":"Barami, Andong","country":"KR"},{"name":"C-326 Heliport","code":"N\/A","lat":38.132472,"lng":127.531786,"city":"","country":"KR"},{"name":"Majang-ro Heliport","code":"N\/A","lat":37.496329,"lng":126.698308,"city":"Incheon","country":"KR"},{"name":"C-286A Heliport","code":"N\/A","lat":37.457278,"lng":127.191347,"city":"Eunhaeng-dong","country":"KR"},{"name":"ROK Army Capital Defense Command Heliport (C-277)","code":"N\/A","lat":37.462462,"lng":126.984004,"city":"Namhyeon-dong","country":"KR"},{"name":"Alddreu Airfield (K-40) (Cheju-do No. 2)","code":"N\/A","lat":33.203935,"lng":126.271319,"city":"","country":"KR"},{"name":"Gapado Heliport","code":"N\/A","lat":33.168004,"lng":126.278714,"city":"Gapado","country":"KR"},{"name":"Majang-ro Heliport","code":"N\/A","lat":37.496331,"lng":126.698311,"city":"Incheon","country":"KR"},{"name":"Sangok-dong Heliport","code":"N\/A","lat":37.501438,"lng":126.697648,"city":"Incheon","country":"KR"},{"name":"Janggo-do Heliport","code":"N\/A","lat":36.388491,"lng":126.335561,"city":"Janggo-do","country":"KR"},{"name":"Keo Jin Helipad","code":"N\/A","lat":38.474202,"lng":128.44191,"city":"Keo Jin","country":"KR"},{"name":"Okchuk-tong Heliport","code":"N\/A","lat":37.843934,"lng":124.705631,"city":"Okchuk-tong","country":"KR"},{"name":"Mahyeon-ri Helipad","code":"N\/A","lat":38.238189,"lng":127.540616,"city":"Mahyeon-ri","country":"KR"},{"name":"Brooklyn Hill Heliport (H-810)","code":"N\/A","lat":35.422562,"lng":128.991986,"city":"","country":"KR"},{"name":"C-104 Heliport","code":"N\/A","lat":37.4794,"lng":126.736146,"city":"Ilsin-dong (Incheon)","country":"KR"},{"name":"C 149 Heliport","code":"N\/A","lat":37.396095,"lng":126.898506,"city":"Anyang","country":"KR"},{"name":"C-154 Heliport","code":"N\/A","lat":37.780978,"lng":126.75402,"city":"","country":"KR"},{"name":"C-155 Helipad","code":"N\/A","lat":37.801886,"lng":126.759634,"city":"Paju","country":"KR"},{"name":"Warrior Base Heliport","code":"N\/A","lat":37.917693,"lng":126.740094,"city":"Tongilchon","country":"KR"},{"name":"C-185 Heliport","code":"N\/A","lat":37.648361,"lng":126.227269,"city":"Jumundo","country":"KR"},{"name":"C-189 Heliport","code":"N\/A","lat":37.947362,"lng":126.953346,"city":"Gamaksan","country":"KR"},{"name":"C 233 Heliport","code":"N\/A","lat":38.2426766,"lng":127.101333,"city":"","country":"KR"},{"name":"C-309 Heliport","code":"N\/A","lat":37.995941,"lng":127.504143,"city":"","country":"KR"},{"name":"C-324 Heliport","code":"N\/A","lat":37.84125,"lng":127.792848,"city":"Neoburae","country":"KR"},{"name":"C-430 Heliport","code":"N\/A","lat":38.082725,"lng":127.954352,"city":"","country":"KR"},{"name":"C-502 Heliport","code":"N\/A","lat":36.563052,"lng":127.281431,"city":"Dangsan-ro","country":"KR"},{"name":"C-513 Heliport","code":"N\/A","lat":37.279546,"lng":127.579779,"city":"","country":"KR"},{"name":"C-520 Heliport","code":"N\/A","lat":36.135546,"lng":126.558276,"city":"Gaetbeolcheheom-ro","country":"KR"},{"name":"C-620 Heliport","code":"N\/A","lat":36.312454,"lng":127.222321,"city":"Gyeryong","country":"KR"},{"name":"C-708 Heliport","code":"N\/A","lat":35.901392,"lng":126.680461,"city":"Sinjang","country":"KR"},{"name":"C 722 Heliport","code":"N\/A","lat":35.123796,"lng":127.009999,"city":"","country":"KR"},{"name":"Dartboard Heliport (H-811)","code":"N\/A","lat":35.740092,"lng":128.689052,"city":"Dalseong-gun","country":"KR"},{"name":"H-253 Heliport","code":"N\/A","lat":37.447415,"lng":126.991283,"city":"Gwacheon-dong","country":"KR"},{"name":"H-610 Heliport","code":"N\/A","lat":37.01656,"lng":127.523549,"city":"Geumil-ro","country":"KR"},{"name":"Irwolbong Helipad","code":"N\/A","lat":37.910287,"lng":126.813987,"city":"Irwolbong","country":"KR"},{"name":"Munhak Heliport (C-107)","code":"N\/A","lat":37.430769,"lng":126.675676,"city":"Munhak","country":"KR"},{"name":"N-103 Heliport","code":"N\/A","lat":36.013126,"lng":129.422592,"city":"Pohang","country":"KR"},{"name":"N-107 Helipad","code":"N\/A","lat":36.043972,"lng":129.567363,"city":"Pohang","country":"KR"},{"name":"N-108 Helipad","code":"N\/A","lat":35.703167,"lng":129.472313,"city":"Naa","country":"KR"},{"name":"N-202 Heliport","code":"N\/A","lat":37.460086,"lng":126.595894,"city":"Incheon Port","country":"KR"},{"name":"Incheon Pier 7 Helipad","code":"N\/A","lat":37.460084,"lng":126.595896,"city":"Incheon Port","country":"KR"},{"name":"Incheon Pier 7 Helipad","code":"N\/A","lat":37.464374,"lng":126.594959,"city":"Incheon Port","country":"KR"},{"name":"Incheon Maritime Police Helipad","code":"N\/A","lat":37.462443,"lng":126.595869,"city":"Incheon Port","country":"KR"},{"name":"N-213 Heliport","code":"N\/A","lat":37.764736,"lng":126.539843,"city":"Mansusan-ro","country":"KR"},{"name":"N 223 Heliport","code":"N\/A","lat":37.610866,"lng":126.416875,"city":"Haeannam-ro","country":"KR"},{"name":"N-224 Heliport","code":"N\/A","lat":37.68769,"lng":126.587002,"city":"Masong-ri","country":"KR"},{"name":"N 306 Heliport","code":"N\/A","lat":35.344712,"lng":126.033513,"city":"Anma-gil","country":"KR"},{"name":"N-311 Heliport","code":"N\/A","lat":34.663415,"lng":126.654565,"city":"Ganjeol-ri","country":"KR"},{"name":"N-312 Heliport","code":"N\/A","lat":34.610045,"lng":126.024293,"city":"Dae-ri","country":"KR"},{"name":"N 313 Helipad","code":"N\/A","lat":34.291372,"lng":126.757352,"city":"Gunnae-gil","country":"KR"},{"name":"N 314 Heliport","code":"N\/A","lat":34.838626,"lng":126.082562,"city":"Amtaedo","country":"KR"},{"name":"N-317 Heliport","code":"N\/A","lat":33.392276,"lng":126.495388,"city":"Hallasan","country":"KR"},{"name":"C-256 Heliport","code":"N\/A","lat":37.736046,"lng":127.029588,"city":"Hoguk-ro (Uijonbu)","country":"KR"},{"name":"LG Twin Towers East Heliport","code":"N\/A","lat":37.52813,"lng":126.92975,"city":"Seoul","country":"KR"},{"name":"Parc 1 Tower A Heliport","code":"N\/A","lat":37.52666,"lng":126.92728,"city":"Seoul","country":"KR"},{"name":"C-255 Heliport","code":"N\/A","lat":37.894467,"lng":127.155005,"city":"Wangbangsangogae","country":"KR"},{"name":"Soya-ri Heliport (\uc18c\uc57c\ub9ac \ud5ec\uae30\uc7a5)","code":"N\/A","lat":37.212622,"lng":126.181589,"city":"Soya-ri","country":"KR"},{"name":"Jawol-myeon Heliport (\uc790\uc6d4\uba74 \ud5ec\ub9ac\ucf65\ud130)","code":"N\/A","lat":37.249679,"lng":126.310622,"city":"Jawol-myeon","country":"KR"},{"name":"Byeollangeum Helipad","code":"N\/A","lat":37.263633,"lng":126.292961,"city":"Byeollangeum","country":"KR"},{"name":"Jawolseo-ro Helipad","code":"N\/A","lat":37.269299,"lng":126.28616,"city":"Jawolseo-ro","country":"KR"},{"name":"Naep\u2019y\u014fng-ni Helipad","code":"N\/A","lat":37.250692,"lng":126.447441,"city":"Naep\u2019y\u014fng-ni","country":"KR"},{"name":"Hyundai-Kia Automotive Group Namyang R&D Center Helipads","code":"N\/A","lat":37.152711,"lng":126.815416,"city":"Namyang","country":"KR"},{"name":"Salgoji Heliport","code":"N\/A","lat":37.15602,"lng":126.651909,"city":"Salgoji","country":"KR"},{"name":"Pakkakori-s\u014fm Helipad","code":"N\/A","lat":37.184868,"lng":126.654219,"city":"Pakkakori-s\u014fm","country":"KR"},{"name":"Joongang Heights Helipad","code":"N\/A","lat":37.65917,"lng":126.767405,"city":"Goyang","country":"KR"},{"name":"Joongang Heights Ville Helipad","code":"N\/A","lat":37.658781,"lng":126.767984,"city":"Goyang","country":"KR"},{"name":"Rodeo Suite Helipad","code":"N\/A","lat":37.660206,"lng":126.770685,"city":"Goyang","country":"KR"},{"name":"Samsung Laqvill Helipad","code":"N\/A","lat":37.660989,"lng":126.765833,"city":"Goyang","country":"KR"},{"name":"Kolon Lake Polls-II North Helipad","code":"N\/A","lat":37.66299,"lng":126.763639,"city":"Goyang","country":"KR"},{"name":"Kolon Lake Polls-II South Helipad","code":"N\/A","lat":37.662466,"lng":126.764152,"city":"Goyang","country":"KR"},{"name":"Kolon Lake Polls-III West Helipad","code":"N\/A","lat":37.663483,"lng":126.764358,"city":"Goyang","country":"KR"},{"name":"Kolon Lake Polls-III East Helipad","code":"N\/A","lat":37.663714,"lng":126.764757,"city":"Goyang","country":"KR"},{"name":"Yang Woo West Helipad","code":"N\/A","lat":37.664801,"lng":126.766546,"city":"Goyang","country":"KR"},{"name":"Yang Woo East Helipad","code":"N\/A","lat":37.665011,"lng":126.76686,"city":"Goyang","country":"KR"},{"name":"Hyundai i\u2019Space Helipad","code":"N\/A","lat":37.663365,"lng":126.770849,"city":"Goyang","country":"KR"},{"name":"Seoul National University School of Medicine Hospital Helipad","code":"N\/A","lat":37.580048,"lng":126.999086,"city":"Seoul","country":"KR"},{"name":"Kyunghee Medical Medical Hospital Heliport","code":"N\/A","lat":37.5936,"lng":127.051496,"city":"Seoul","country":"KR"},{"name":"Samsung Medical Center Helipad","code":"N\/A","lat":37.488244,"lng":127.085273,"city":"Irwon-dong (Seoul)","country":"KR"},{"name":"Rosedale Building North Helipad","code":"N\/A","lat":37.487629,"lng":127.10338,"city":"Suseo-dong (Seoul)","country":"KR"},{"name":"Rosedale Building South Helipad","code":"N\/A","lat":37.486714,"lng":127.103311,"city":"Suseo-dong (Seoul)","country":"KR"},{"name":"National Police Hospital Heliport","code":"N\/A","lat":37.496508,"lng":127.123605,"city":"Seoul","country":"KR"},{"name":"Poonglim Want North Helipad","code":"N\/A","lat":37.389569,"lng":127.122549,"city":"Seoul","country":"KR"},{"name":"Poonglim Want West Helipad","code":"N\/A","lat":37.38907,"lng":127.121844,"city":"Seoul","country":"KR"},{"name":"Poonglim Want South Helipad","code":"N\/A","lat":37.388589,"lng":127.12239,"city":"Seoul","country":"KR"},{"name":"Seoul National University Bundang Hospital Helipad","code":"N\/A","lat":37.352297,"lng":127.123343,"city":"Bundang-gu (Seongnam)","country":"KR"},{"name":"Giljeon-ri Helipad","code":"N\/A","lat":37.667765,"lng":126.452001,"city":"Galjeon-ri","country":"KR"},{"name":"Geomsan-dong Helipad","code":"N\/A","lat":37.79612,"lng":126.751521,"city":"Geomsan-ddong","country":"KR"},{"name":"Saeori-ro Helipad","code":"N\/A","lat":37.808877,"lng":126.698162,"city":"Saeori-ro","country":"KR"},{"name":"Odu Mountain Unification Observatory Helipad","code":"N\/A","lat":37.773212,"lng":126.68008,"city":"Odu Mountain","country":"KR"},{"name":"Odu Mountain Unification Observatory Helipad","code":"N\/A","lat":37.773212,"lng":126.68008,"city":"Odu Mountain","country":"KR"},{"name":"Odu Mountain Unification Observatory Helipad","code":"N\/A","lat":37.773212,"lng":126.68008,"city":"Odu Mountain","country":"KR"},{"name":"Odu Mountain Unification Observatory Helipad","code":"N\/A","lat":37.773212,"lng":126.68008,"city":"Odu Mountain","country":"KR"},{"name":"Sannam-ro Helipads","code":"N\/A","lat":37.705409,"lng":126.696686,"city":"Sannam-ro","country":"KR"},{"name":"Jangdan Helipad","code":"N\/A","lat":37.939226,"lng":126.751208,"city":"Jangdan","country":"KR"},{"name":"Gorangpo-ri Helipad","code":"N\/A","lat":37.977964,"lng":126.829604,"city":"Gorangpo-ri","country":"KR"},{"name":"Duhyeon-ri Helipad","code":"N\/A","lat":38.038308,"lng":126.886019,"city":"Duhyeon-ri","country":"KR"},{"name":"Baengnyeong-ri Helipad","code":"N\/A","lat":38.056628,"lng":126.887657,"city":"Baengnyeong-ri","country":"KR"},{"name":"Jeokgeo-ri Helipads","code":"N\/A","lat":38.179802,"lng":127.003192,"city":"Jeokgeo-ri","country":"KR"},{"name":"Deoksan-ri Helipads","code":"N\/A","lat":38.23829,"lng":127.066294,"city":"Deoksan-ri","country":"KR"},{"name":"Domil-ri Helipad","code":"N\/A","lat":38.259303,"lng":127.101329,"city":"Domil-ri","country":"KR"},{"name":"Myojang-ro Heliport","code":"N\/A","lat":38.270551,"lng":127.145486,"city":"Myojang-ro","country":"KR"},{"name":"Sanmyeong-ri Helipad","code":"N\/A","lat":38.293567,"lng":127.178931,"city":"Sanmyeong-ri","country":"KR"},{"name":"Jeongyeong-gil Helipad","code":"N\/A","lat":38.299242,"lng":127.347009,"city":"Jeongyeong-gil","country":"KR"},{"name":"Yongyang-ri Helipad","code":"N\/A","lat":38.283046,"lng":127.497491,"city":"Yongyang-ri","country":"KR"},{"name":"Yangji-ri West Helipad","code":"N\/A","lat":38.283579,"lng":127.517069,"city":"Yangji-ri","country":"KR"},{"name":"Yangji-ri East Helipad","code":"N\/A","lat":38.284501,"lng":127.527034,"city":"Yangji-ri","country":"KR"},{"name":"Yangji-ri North Helipad","code":"N\/A","lat":38.29187,"lng":127.53477,"city":"Yangji-ri","country":"KR"},{"name":"Bangtong-ri Helipad","code":"N\/A","lat":38.286356,"lng":127.55021,"city":"Bangtong-ri","country":"KR"},{"name":"Deungdae-ri North Helipad","code":"N\/A","lat":38.308304,"lng":127.745601,"city":"Deungdae-ri","country":"KR"},{"name":"Deungdae-ri South Helipad","code":"N\/A","lat":38.307402,"lng":127.745306,"city":"Deungdae-ri","country":"KR"},{"name":"Pungsan-ri East Helipad","code":"N\/A","lat":38.273386,"lng":127.81451,"city":"Pungsan-ri","country":"KR"},{"name":"Pungsan-ri West Helipads","code":"N\/A","lat":38.266556,"lng":127.808874,"city":"Pungsan-ri","country":"KR"},{"name":"Cheonmi-ri Helipad","code":"N\/A","lat":38.303598,"lng":127.889805,"city":"Cheonmi-ri","country":"KR"},{"name":"Heartbreak Ridge South Helipad","code":"N\/A","lat":38.295924,"lng":128.013562,"city":"Satae-ri","country":"KR"},{"name":"Heartbreak Ridge North Helipad","code":"N\/A","lat":38.300695,"lng":128.015867,"city":"Satae-ri","country":"KR"},{"name":"Ohyu-ri Helipad","code":"N\/A","lat":38.285543,"lng":128.088065,"city":"Ohyu-ri","country":"KR"},{"name":"Ihyeon-ri Helipad","code":"N\/A","lat":38.320311,"lng":128.111755,"city":"Ihyeon-ri","country":"KR"},{"name":"Wolsan-ri West Helipad","code":"N\/A","lat":38.320456,"lng":128.159953,"city":"Wolsan-ri","country":"KR"},{"name":"Wolsan-ri East Helipad","code":"N\/A","lat":38.314054,"lng":128.170417,"city":"Wolsan-ri","country":"KR"},{"name":"Gajeon Helipad","code":"N\/A","lat":38.351408,"lng":128.20568,"city":"Gajeon","country":"KR"},{"name":"Gajeon-ri West Helipad","code":"N\/A","lat":38.351408,"lng":128.20568,"city":"Gajeon-ri","country":"KR"},{"name":"Gajeon-ri East Helipad","code":"N\/A","lat":38.348047,"lng":128.264949,"city":"Gajeon-ri","country":"KR"},{"name":"Gajeon-ri South Helipad","code":"N\/A","lat":38.332784,"lng":128.270756,"city":"Gajeon-ri","country":"KR"},{"name":"Sacheon-ri Helipad","code":"N\/A","lat":38.418166,"lng":128.311373,"city":"Sacheon-ri","country":"KR"},{"name":"Gomiseong-ri Helipad","code":"N\/A","lat":38.429852,"lng":128.339042,"city":"Gomiseong-ri","country":"KR"},{"name":"Songgang-ri Helipad","code":"N\/A","lat":38.425887,"lng":128.342368,"city":"Songgang-ri","country":"KR"},{"name":"Songgang-ri East Heliport","code":"N\/A","lat":38.425784,"lng":128.344845,"city":"Songgang-ri","country":"KR"},{"name":"Songgang-ri North Helipad","code":"N\/A","lat":38.43367,"lng":128.35271,"city":"Songgang-ri","country":"KR"},{"name":"Sangwon-ri Helipad","code":"N\/A","lat":38.40695,"lng":128.30156,"city":"Sangwon-ri","country":"KR"},{"name":"Tapyeol-ri Helipad","code":"N\/A","lat":38.399839,"lng":128.348492,"city":"Tapyeol-ri","country":"KR"},{"name":"Sanbuk-ri Helipad","code":"N\/A","lat":38.464816,"lng":128.357234,"city":"Sanbuk-ri","country":"KR"},{"name":"Gomiseong-ri North Helipad","code":"N\/A","lat":38.477279,"lng":128.339801,"city":"Gomiseong-ri","country":"KR"},{"name":"Madal-ri","code":"N\/A","lat":38.518189,"lng":128.356321,"city":"Madal-ri","country":"KR"},{"name":"Myeongpa-ri Helipad","code":"N\/A","lat":38.553311,"lng":128.397962,"city":"Myeongpa-ri","country":"KR"},{"name":"Myeongpa-ri East Helipad","code":"N\/A","lat":38.553256,"lng":128.399588,"city":"Myeongpa-ri","country":"KR"},{"name":"Jejin Helipad","code":"N\/A","lat":38.571418,"lng":128.393423,"city":"Jejin","country":"KR"},{"name":"Myeongho-ri Heliport","code":"N\/A","lat":38.583822,"lng":128.363241,"city":"Myeongho-ri","country":"KR"},{"name":"Songhyeon-ri Helipad","code":"N\/A","lat":38.572299,"lng":128.342921,"city":"Songhyeon-ri","country":"KR"},{"name":"Songhyeon-ri South Helipad","code":"N\/A","lat":38.558955,"lng":128.347938,"city":"Songhyeon-ri","country":"KR"},{"name":"Songhyeon-ri North Helipad","code":"N\/A","lat":38.576859,"lng":128.345464,"city":"Songhyeon-ri","country":"KR"},{"name":"Geomjang-ri Helipad","code":"N\/A","lat":38.543466,"lng":128.346904,"city":"Geomjang-ri","country":"KR"},{"name":"Myeongpa-ri South Helipad","code":"N\/A","lat":38.521314,"lng":128.335495,"city":"Myeongpa-ri","country":"KR"},{"name":"Sangwon-ri West Helipad","code":"N\/A","lat":38.399958,"lng":128.286519,"city":"Sangwon-ri","country":"KR"},{"name":"Cheondochon Helipad","code":"N\/A","lat":38.237992,"lng":128.216771,"city":"Cheondochon","country":"KR"},{"name":"Cheondo-ri Helipad","code":"N\/A","lat":38.240628,"lng":128.210988,"city":"Cheondo-ri","country":"KR"},{"name":"Wolhak-ri Helipad","code":"N\/A","lat":38.146381,"lng":128.208403,"city":"Wolhak-ri","country":"KR"},{"name":"Wolhak-ri Helipad","code":"N\/A","lat":38.157743,"lng":128.203856,"city":"Wolhak-ri","country":"KR"},{"name":"Seoheung-ri Helipad","code":"N\/A","lat":38.200359,"lng":128.210699,"city":"Seoheung-ri","country":"KR"},{"name":"Seoheung-ri North Helipad","code":"N\/A","lat":38.204576,"lng":128.210825,"city":"Seoheung-ri","country":"KR"},{"name":"Cheondo-ri East Helipad","code":"N\/A","lat":38.219436,"lng":128.224091,"city":"Cheondo-ri","country":"KR"},{"name":"Cheondo-ri North Helipad North Helipad","code":"N\/A","lat":38.230052,"lng":128.202126,"city":"Cheondo-ri","country":"KR"},{"name":"Hu-ri Helipad","code":"N\/A","lat":38.310573,"lng":128.148074,"city":"Hu-ri","country":"KR"},{"name":"Bia-ri Helipad","code":"N\/A","lat":38.277833,"lng":128.042379,"city":"Bia-ri","country":"KR"},{"name":"Bia-ri South Helipad","code":"N\/A","lat":38.257052,"lng":128.04206,"city":"Bia-ri","country":"KR"},{"name":"Bia-ri East Helipad","code":"N\/A","lat":38.261751,"lng":128.047036,"city":"Bia-ri","country":"KR"},{"name":"Geonsol-ri Helipad","code":"N\/A","lat":38.283061,"lng":127.979133,"city":"Geonsol-ri","country":"KR"},{"name":"Geonsol-ri South Helipad","code":"N\/A","lat":38.265432,"lng":127.983271,"city":"Geonsol-ri","country":"KR"},{"name":"Gobangsal-ri Helipad","code":"N\/A","lat":38.250514,"lng":128.010582,"city":"Gobangsal-ri","country":"KR"},{"name":"Imdang-ri Airfield","code":"N\/A","lat":38.19605,"lng":128.041942,"city":"Imdang-ri","country":"KR"},{"name":"Wolun-ri Helipad","code":"N\/A","lat":38.254708,"lng":128.046403,"city":"Wolun-ri","country":"KR"},{"name":"Geonsol-ri West Helipad","code":"N\/A","lat":38.27359,"lng":127.960183,"city":"Geonsol-ri","country":"KR"},{"name":"Geumaki-ri Helipad","code":"N\/A","lat":38.229966,"lng":127.9074865,"city":"Geumaki-ri","country":"KR"},{"name":"Cheonmi-ri East Helipad","code":"N\/A","lat":38.296719,"lng":127.904195,"city":"Cheonmi-ri","country":"KR"},{"name":"Deungdae-ri East Helipad","code":"N\/A","lat":38.284311,"lng":127.7766318,"city":"Deungdae-ri","country":"KR"},{"name":"Pungsan-ri South Helipad South Helipad","code":"N\/A","lat":38.247116,"lng":127.785713,"city":"Pungsan-ri","country":"KR"},{"name":"Mahyeon-ri West Helipad","code":"N\/A","lat":38.254866,"lng":127.579795,"city":"Mahyeon-ri","country":"KR"},{"name":"G-321 Airfield","code":"N\/A","lat":38.268966,"lng":127.55613,"city":"Mahyeon-ri","country":"KR"},{"name":"Eupnae-ri Helipad","code":"N\/A","lat":38.295227,"lng":127.424122,"city":"Eupnae-ri","country":"KR"},{"name":"Hoengsan-ri Helipad","code":"N\/A","lat":38.113047,"lng":126.986026,"city":"Hoengsan-ri","country":"KR"},{"name":"Mapo-ri Helipad","code":"N\/A","lat":37.999331,"lng":127.005775,"city":"Mapo-ri","country":"KR"},{"name":"C-122 Heliport","code":"N\/A","lat":37.90143,"lng":126.735655,"city":"Baegyeon-ri","country":"KR"},{"name":"C-820 Heliport","code":"N\/A","lat":35.386108,"lng":129.064072,"city":"Daeseok-ri","country":"KR"},{"name":"C-820 Heliport","code":"N\/A","lat":35.386108,"lng":129.064072,"city":"Daeseok-ri","country":"KR"},{"name":"Seoul National University Bundang Hospital Helipad","code":"N\/A","lat":37.352463,"lng":127.122985,"city":"Bundang (Seoul)","country":"KR"},{"name":"Kkotchi Heliport","code":"N\/A","lat":37.660332,"lng":126.235028,"city":"Kkotchi","country":"KR"},{"name":"Jangbong-ri Heliport","code":"N\/A","lat":37.522958,"lng":126.327245,"city":"Jangbong-ri","country":"KR"},{"name":"Jangbong-ro Heliport","code":"N\/A","lat":37.530055,"lng":126.335101,"city":"Jangbong-ro","country":"KR"},{"name":"Jinhae Naval Hospital Heliport","code":"N\/A","lat":35.140384,"lng":128.650798,"city":"Jinhae","country":"KR"},{"name":"Ibam Heliport","code":"N\/A","lat":34.899652,"lng":128.168282,"city":"Chunam-ri","country":"KR"},{"name":"Jinhae Naval Academy Heliport","code":"N\/A","lat":35.133397,"lng":128.666034,"city":"Jinhae (Angok-dong)","country":"KR"},{"name":"Jinhae Naval Base (2 helipads)","code":"N\/A","lat":35.146791,"lng":128.636902,"city":"Jinhae","country":"KR"},{"name":"Jinhae Submarine Base Helipad","code":"N\/A","lat":35.136864,"lng":128.621655,"city":"Jinhae","country":"KR"},{"name":"Jinhae Airbase\/Airport Heliport","code":"N\/A","lat":35.136405,"lng":128.699126,"city":"Jinhae","country":"KR"},{"name":"Ch\u2019odo-ri Heliport","code":"N\/A","lat":38.486465,"lng":128.43701,"city":"Ch\u2019odo-ri","country":"KR"},{"name":"Myeongjeong-dong Heliport","code":"N\/A","lat":34.851535,"lng":128.413149,"city":"Myeongjeong","country":"KR"},{"name":"Samsung Total Petrochemicals Daesan Heliport","code":"N\/A","lat":37.005903,"lng":126.353156,"city":"Daesan","country":"KR"},{"name":"LG Chemical Ltd Daesan Complex Heliport","code":"N\/A","lat":36.997371,"lng":126.379938,"city":"Daesan","country":"KR"},{"name":"Bunam-ri Heliport","code":"N\/A","lat":37.365801,"lng":129.249538,"city":"Bunam-ri","country":"KR"},{"name":"Shinan Daewoo Hospital Heliport","code":"N\/A","lat":34.72165,"lng":125.93294,"city":"Sudae-ri","country":"KR"},{"name":"Suchi-do Heliport","code":"N\/A","lat":34.738381,"lng":126.024224,"city":"Suchi-ri","country":"KR"},{"name":"Chondung Sa Heliport","code":"N\/A","lat":37.587476,"lng":126.514069,"city":"Donggeom-ri","country":"KR"},{"name":"Ssangyong East Cement Plant Heliport","code":"N\/A","lat":37.487569,"lng":129.064352,"city":"Iro-dong (Donghae)","country":"KR"},{"name":"Mukho Port Heliport","code":"N\/A","lat":37.540345,"lng":129.115255,"city":"Mukho","country":"KR"},{"name":"Mukho Port Heliport","code":"N\/A","lat":37.540345,"lng":129.115255,"city":"Mukho","country":"KR"},{"name":"Mukho Port Heliport","code":"N\/A","lat":37.540345,"lng":129.115255,"city":"Mukho","country":"KR"},{"name":"Mukho Port Heliport","code":"N\/A","lat":37.540345,"lng":129.115255,"city":"Mukho","country":"KR"},{"name":"Mukho Port Heliport","code":"N\/A","lat":37.540345,"lng":129.115255,"city":"Mukho","country":"KR"},{"name":"Mukho Port Heliport","code":"N\/A","lat":37.540345,"lng":129.115255,"city":"Mukho","country":"KR"},{"name":"Mukho Port Heliport","code":"N\/A","lat":37.540345,"lng":129.115255,"city":"Mukho","country":"KR"},{"name":"Mukho Port Heliport","code":"N\/A","lat":37.540345,"lng":129.115255,"city":"Mukho","country":"KR"},{"name":"Mukho Port Heliport","code":"N\/A","lat":37.540345,"lng":129.115255,"city":"Mukho","country":"KR"},{"name":"Mukho Port Heliport","code":"N\/A","lat":37.540345,"lng":129.115255,"city":"Mukho","country":"KR"},{"name":"Mukho Port Heliport","code":"N\/A","lat":37.540345,"lng":129.115255,"city":"Mukho","country":"KR"},{"name":"Mukho Port Heliport","code":"N\/A","lat":37.540345,"lng":129.115255,"city":"Mukho","country":"KR"},{"name":"Mukho Port Heliport","code":"N\/A","lat":37.540345,"lng":129.115255,"city":"Mukho","country":"KR"},{"name":"Mukho Port Heliport","code":"N\/A","lat":37.540345,"lng":129.115255,"city":"Mukho","country":"KR"},{"name":"Mukho Port Heliport","code":"N\/A","lat":37.540345,"lng":129.115255,"city":"Mukho","country":"KR"},{"name":"Mukho Port Heliport","code":"N\/A","lat":37.540345,"lng":129.115255,"city":"Mukho","country":"KR"},{"name":"Mukho Port Heliport","code":"N\/A","lat":37.540345,"lng":129.115255,"city":"Mukho","country":"KR"},{"name":"Mukho Port Heliport","code":"N\/A","lat":37.540345,"lng":129.115255,"city":"Mukho","country":"KR"},{"name":"Mukho Port Heliport","code":"N\/A","lat":37.540345,"lng":129.115255,"city":"Mukho","country":"KR"},{"name":"Mukho Port Heliport","code":"N\/A","lat":37.540345,"lng":129.115255,"city":"Mukho","country":"KR"},{"name":"Mukho Port Heliport","code":"N\/A","lat":37.540345,"lng":129.115255,"city":"Mukho","country":"KR"},{"name":"Mukho Port Heliport","code":"N\/A","lat":37.540345,"lng":129.115255,"city":"Mukho","country":"KR"},{"name":"Mukho Port Heliport","code":"N\/A","lat":37.540345,"lng":129.115255,"city":"Mukho","country":"KR"},{"name":"Chodang University Sani Airport (Yeongnong Airport)","code":"N\/A","lat":34.62773,"lng":126.42019,"city":"Haenam (Sani-myeon)","country":"KR"},{"name":"Geoje Wahyeon Heliport","code":"N\/A","lat":34.80071,"lng":128.73337,"city":"Geoje","country":"KR"},{"name":"Mukho Port Heliport","code":"N\/A","lat":37.540345,"lng":129.115255,"city":"Mukho","country":"KR"},{"name":"Mukho Port Heliport","code":"N\/A","lat":37.540345,"lng":129.115255,"city":"Mukho","country":"KR"},{"name":"Mukho Port Heliport","code":"N\/A","lat":37.540345,"lng":129.115255,"city":"Mukho","country":"KR"},{"name":"Mukho Port Heliport","code":"N\/A","lat":37.540345,"lng":129.115255,"city":"Mukho","country":"KR"},{"name":"Mukho Port Heliport","code":"N\/A","lat":37.540345,"lng":129.115255,"city":"Mukho","country":"KR"},{"name":"Mukho Port Heliport","code":"N\/A","lat":37.540345,"lng":129.115255,"city":"Mukho","country":"KR"},{"name":"Mukho Port Heliport","code":"N\/A","lat":37.540345,"lng":129.115255,"city":"Mukho","country":"KR"},{"name":"Mukho Port Heliport","code":"N\/A","lat":37.540345,"lng":129.115255,"city":"Mukho","country":"KR"},{"name":"Mukho Port Heliport","code":"N\/A","lat":37.540345,"lng":129.115255,"city":"Mukho","country":"KR"},{"name":"Mukho Port Heliport","code":"N\/A","lat":37.540345,"lng":129.115255,"city":"Mukho","country":"KR"},{"name":"Mukho Port Heliport","code":"N\/A","lat":37.540345,"lng":129.115255,"city":"Mukho","country":"KR"},{"name":"Mukho Port Heliport","code":"N\/A","lat":37.540345,"lng":129.115255,"city":"Mukho","country":"KR"},{"name":"Mukho Port Heliport","code":"N\/A","lat":37.540345,"lng":129.115255,"city":"Mukho","country":"KR"},{"name":"Mukho Port Heliport","code":"N\/A","lat":37.540345,"lng":129.115255,"city":"Mukho","country":"KR"},{"name":"Mukho Port Heliport","code":"N\/A","lat":37.540345,"lng":129.115255,"city":"Mukho","country":"KR"},{"name":"Mukho Port Heliport","code":"N\/A","lat":37.540345,"lng":129.115255,"city":"Mukho","country":"KR"},{"name":"Mukho Port Heliport","code":"N\/A","lat":37.540345,"lng":129.115255,"city":"Mukho","country":"KR"},{"name":"Mukho Port Heliport","code":"N\/A","lat":37.540345,"lng":129.115255,"city":"Mukho","country":"KR"},{"name":"Mukho Port Heliport","code":"N\/A","lat":37.540345,"lng":129.115255,"city":"Mukho","country":"KR"},{"name":"Mukho Port Heliport","code":"N\/A","lat":37.540345,"lng":129.115255,"city":"Mukho","country":"KR"},{"name":"Mukho Port Heliport","code":"N\/A","lat":37.540345,"lng":129.115255,"city":"Mukho","country":"KR"},{"name":"Mukho Port Heliport","code":"N\/A","lat":37.540345,"lng":129.115255,"city":"Mukho","country":"KR"},{"name":"Mukho Port Heliport","code":"N\/A","lat":37.540345,"lng":129.115255,"city":"Mukho","country":"KR"},{"name":"Mukho Port Heliport","code":"N\/A","lat":37.540345,"lng":129.115255,"city":"Mukho","country":"KR"},{"name":"Mukho Port Heliport","code":"N\/A","lat":37.540345,"lng":129.115255,"city":"Mukho","country":"KR"},{"name":"Yeongheung Power Station Heliport","code":"N\/A","lat":37.241964,"lng":126.441578,"city":"Eopbeol (Oe-ri)","country":"KR"},{"name":"Jeju  ROK Naval Air Facility","code":"N\/A","lat":33.510775,"lng":126.49913,"city":"Yongdami-dong","country":"KR"},{"name":"Jeju International Airport Heliport","code":"N\/A","lat":33.509467,"lng":126.49965,"city":"Yongdami-dong","country":"KR"},{"name":"Jeju Island Naval Base Command Helipad","code":"N\/A","lat":33.228556,"lng":126.482651,"city":"Gangjeong","country":"KR"},{"name":"ROK Navy 301st Defense Squadron Miaksan Radar Site Helipad","code":"N\/A","lat":33.30117,"lng":126.55571,"city":"Donghong-dong","country":"KR"},{"name":"ROK Air Force 8546th Group: 308th Squadron Heliport","code":"N\/A","lat":33.232446,"lng":126.255317,"city":"Hamo-ri","country":"KR"},{"name":"Hallasan Heliport","code":"N\/A","lat":33.370098,"lng":126.533043,"city":"Odeung-dong","country":"KR"},{"name":"Gasado Heliport","code":"N\/A","lat":34.476,"lng":126.060667,"city":"Gasado-ri","country":"KR"},{"name":"Hwapo-ri Early Warning Radar Base Heliport","code":"N\/A","lat":38.461406,"lng":128.453591,"city":"Hwapo-ri","country":"KR"},{"name":"Andong General Hospital","code":"N\/A","lat":36.546699,"lng":128.700773,"city":"Andong","country":"KR"},{"name":"Daejon St. Mary\u2019s Hospital Heliport","code":"N\/A","lat":36.322458,"lng":127.42046,"city":"Daejon","country":"KR"},{"name":"Eulji University Hospital Heliport","code":"N\/A","lat":36.355396,"lng":127.381891,"city":"Daejon","country":"KR"},{"name":"ROK Ministry of SMEs & Startups","code":"N\/A","lat":36.361598,"lng":127.383943,"city":"Daejon","country":"KR"},{"name":"ROK Ministry of SMEs & Starups","code":"N\/A","lat":36.361598,"lng":127.383943,"city":"Daejon","country":"KR"},{"name":"ROK Ministry of SMEs & Starups","code":"N\/A","lat":36.361598,"lng":127.383943,"city":"Daejon","country":"KR"},{"name":"Sky Nuri Flight School Airstrip","code":"N\/A","lat":37.10731,"lng":126.7644,"city":"Hwaseong","country":"KR"},{"name":"Gaeyado-ri Heliport","code":"N\/A","lat":36.0416,"lng":126.55557,"city":"Gunsan (Okdo-myeon)","country":"KR"},{"name":"ROK Armed Forces Daejon Military Hospital Heliport","code":"N\/A","lat":36.39781,"lng":127.348591,"city":"Daejon","country":"KR"},{"name":"ROK Army 53rd Logstics Support Group Heliport","code":"N\/A","lat":36.403103,"lng":127.351137,"city":"Daejon","country":"KR"},{"name":"Jaun-ro Heliport","code":"N\/A","lat":36.410803,"lng":127.345216,"city":"Jaun-ro (Daejan)","country":"KR"},{"name":"ROK Joint Forces Military University Heliport","code":"N\/A","lat":36.415414,"lng":127.358792,"city":"Daejon","country":"KR"},{"name":"Geumgang Axle Tower Complex Heliports","code":"N\/A","lat":36.451924,"lng":127.42071,"city":"Daejon","country":"KR"},{"name":"Chungbuk National University Hospital Heliport","code":"N\/A","lat":36.623297,"lng":127.460647,"city":"Gaesin-dong","country":"KR"},{"name":"Dankook University Cheonan Campus Heliport","code":"N\/A","lat":36.843877,"lng":127.173899,"city":"Anseo-dong","country":"KR"},{"name":"Cheonan City Health Center Heliport","code":"N\/A","lat":36.814987,"lng":127.11463,"city":"Cheonan","country":"KR"},{"name":"Busan Medical Center Heliport","code":"N\/A","lat":35.187373,"lng":129.059249,"city":"Busan","country":"KR"},{"name":"Geumnyeonsan Heliport","code":"N\/A","lat":35.163241,"lng":129.096439,"city":"Busan","country":"KR"},{"name":"Swimmer Hyundai IPark Apartments Heliports","code":"N\/A","lat":35.162341,"lng":129.129771,"city":"Busan","country":"KR"},{"name":"Minak Lotte Castle Giant Apartment Complex Heliports","code":"N\/A","lat":35.158096,"lng":129.132872,"city":"Busan","country":"KR"},{"name":"Park Hyatt Busan Heliport","code":"N\/A","lat":35.157083,"lng":129.141736,"city":"Busan","country":"KR"},{"name":"Haeundae I Park Marina Tower 1 Heliport","code":"N\/A","lat":35.157954,"lng":129.142097,"city":"Busan","country":"KR"},{"name":"Haeundae Doosan We\u2019ve the Zenith Heliports","code":"N\/A","lat":35.158039,"lng":129.145569,"city":"Busan","country":"KR"},{"name":"Haeundae I Park Marina Tower 2 Heliport","code":"N\/A","lat":35.155971,"lng":129.142104,"city":"Busan","country":"KR"},{"name":"Daewoo Trump Marine World Heliports","code":"N\/A","lat":35.15528,"lng":129.143654,"city":"Busan","country":"KR"},{"name":"Hanhwa Resort Haeundae Heliport","code":"N\/A","lat":35.15504,"lng":129.144801,"city":"Busan","country":"KR"},{"name":"Doosan We\u2019ve Poseidon Heliports","code":"N\/A","lat":35.155192,"lng":129.14425,"city":"Busan","country":"KR"},{"name":"Kaiser Village Apartments Heliports","code":"N\/A","lat":35.1551,"lng":129.146173,"city":"Busan","country":"KR"},{"name":"Hanil Ordew Heliport","code":"N\/A","lat":35.155436,"lng":129.146379,"city":"Busan","country":"KR"},{"name":"Daewoo Worldmark Centrum Apartments Heliports","code":"N\/A","lat":35.156495,"lng":129.146387,"city":"Busan","country":"KR"},{"name":"Meeting Plaza Heliport","code":"N\/A","lat":35.157899,"lng":129.147295,"city":"Busan","country":"KR"},{"name":"Hyundai Hypherion Apartments Heliports","code":"N\/A","lat":35.157846,"lng":129.1483,"city":"Busan","country":"KR"},{"name":"Hyundai Camelia Haute Heliports","code":"N\/A","lat":35.15785,"lng":129.150325,"city":"Busan","country":"KR"},{"name":"Benecity Apartment Complex Heliports","code":"N\/A","lat":35.159291,"lng":129.150451,"city":"Busan","country":"KR"},{"name":"Ocean Park Apartments Heliport","code":"N\/A","lat":35.160731,"lng":129.15334,"city":"Busan","country":"KR"},{"name":"53rd ROK Army Division Heliport","code":"N\/A","lat":35.191118,"lng":129.194541,"city":"Haeundae (Busan)","country":"KR"},{"name":"Ocean Tower Heliport","code":"N\/A","lat":35.159123,"lng":129.153629,"city":"Busan","country":"KR"},{"name":"Haeundae Grand Hotel Heliport","code":"N\/A","lat":35.159047,"lng":129.155416,"city":"Busan","country":"KR"},{"name":"Gyeryongdae Emergency Airfield","code":"N\/A","lat":36.31421,"lng":127.2343,"city":"Gyeryong","country":"KR"},{"name":"Hanyang Water Marine Council Heliport","code":"N\/A","lat":35.161157,"lng":129.155978,"city":"Busan","country":"KR"},{"name":"Seacloud Hotel Heliport","code":"N\/A","lat":35.160922,"lng":129.161719,"city":"Haeundae (Busan)","country":"KR"},{"name":"Novotel Ambassador Hotel Heliport","code":"N\/A","lat":35.160197,"lng":129.162864,"city":"Haeundae (Busan)","country":"KR"},{"name":"Paradise Hotel Busan Heliport","code":"N\/A","lat":35.160422,"lng":129.165334,"city":"Haeundae (Busan)","country":"KR"},{"name":"Pale de Cz Hotel Heliports","code":"N\/A","lat":35.160288,"lng":129.166938,"city":"Haeundae (Busan)","country":"KR"},{"name":"Ciel de Mer Hotel Heliports","code":"N\/A","lat":35.161249,"lng":129.166764,"city":"Haeundae (Busan)","country":"KR"},{"name":"Haeundae Jugong Apartments Heliports","code":"N\/A","lat":35.160736,"lng":129.178877,"city":"Haeundae (Busan)","country":"KR"},{"name":"Haeundae Hillstate We\u2019ve Apartments Heliports","code":"N\/A","lat":35.164121,"lng":129.182146,"city":"Haeundae (Busan)","country":"KR"},{"name":"Haeundae Doosan We\u2019ve Centrum Apartments Heliport","code":"N\/A","lat":35.168167,"lng":129.176299,"city":"Haeundae (Busan)","country":"KR"},{"name":"Citadines Apartments-Motel Heliport","code":"N\/A","lat":35.163638,"lng":129.158212,"city":"Haeundae (Busan)","country":"KR"},{"name":"Haeundae Centrum Hotel Heliport","code":"N\/A","lat":35.168229,"lng":129.132489,"city":"Haeundae (Busan)","country":"KR"},{"name":"Trump World Centrum Apartments Heliports","code":"N\/A","lat":35.167055,"lng":129.133537,"city":"Haeundae (Busan)","country":"KR"},{"name":"Centrum Leaders Mark Apartments Heliport","code":"N\/A","lat":35.166626,"lng":129.132172,"city":"Haeundae (Busan)","country":"KR"},{"name":"World Business Center (WBC) The Palace Heliports","code":"N\/A","lat":35.166292,"lng":129.131391,"city":"Haeundae (Busan)","country":"KR"},{"name":"Haeundae Exordium Apartments Heliports","code":"N\/A","lat":35.163258,"lng":129.137488,"city":"Haeundae (Busan)","country":"KR"},{"name":"Lotte Gallerium Centrum Heliports","code":"N\/A","lat":35.167895,"lng":129.131045,"city":"Haeundae (Busan)","country":"KR"},{"name":"Trump World Centrum City Heliports","code":"N\/A","lat":35.17093,"lng":129.131756,"city":"Haeundae (Busan)","country":"KR"},{"name":"Green Centrum in Hanhwa Dream Heliports","code":"N\/A","lat":35.172223,"lng":129.132488,"city":"Haeundae (Busan)","country":"KR"},{"name":"KNN Media Center Heliports","code":"N\/A","lat":35.1726,"lng":129.128328,"city":"Busan","country":"KR"},{"name":"Ace High Tech 21 Heliport","code":"N\/A","lat":35.17339,"lng":129.129766,"city":"Busan","country":"KR"},{"name":"Centum Green Tower Apartments Heliport","code":"N\/A","lat":35.174591,"lng":129.126668,"city":"Busan","country":"KR"},{"name":"Kang Lim CSP Heliport","code":"N\/A","lat":35.173817,"lng":129.12585,"city":"Busan","country":"KR"},{"name":"Cube E Centum Realty Heliport","code":"N\/A","lat":35.175498,"lng":129.125988,"city":"Busan","country":"KR"},{"name":"Pluq Inc. Heliport","code":"N\/A","lat":35.175935,"lng":129.125935,"city":"Busan","country":"KR"},{"name":"Centum IS Heliport","code":"N\/A","lat":35.176618,"lng":129.125116,"city":"Busan","country":"KR"},{"name":"Centum Star Heliport","code":"N\/A","lat":35.177182,"lng":129.124342,"city":"Busan","country":"KR"},{"name":"Sharp Centum Star Apartments Heliports","code":"N\/A","lat":35.17734,"lng":129.123546,"city":"Busan","country":"KR"},{"name":"Centum Park Apartments (1+2)","code":"N\/A","lat":35.178509,"lng":129.121885,"city":"Busan","country":"KR"},{"name":"Lazzi Hotel Heliport","code":"N\/A","lat":35.208943,"lng":128.999849,"city":"Busan","country":"KR"},{"name":"Lotte Busan Hotel Heliport","code":"N\/A","lat":35.157495,"lng":129.056004,"city":"Busan","country":"KR"},{"name":"Lotte Busan Department Store Heliport","code":"N\/A","lat":35.156651,"lng":129.056303,"city":"Busan","country":"KR"},{"name":"Sharp Central Star Apartments Heliports","code":"N\/A","lat":35.15233,"lng":129.061522,"city":"Busan","country":"KR"},{"name":"Sejong Grandia Apartments Heliports","code":"N\/A","lat":35.152322,"lng":129.064494,"city":"Busan","country":"KR"},{"name":"Halla Vivaldi Apartments Heliports","code":"N\/A","lat":35.150933,"lng":129.066876,"city":"Busan","country":"KR"},{"name":"Semyeon Lotte Castle Sky Apartments Heliports","code":"N\/A","lat":35.162551,"lng":129.06381,"city":"Busan","country":"KR"},{"name":"Daewon Cantabile Members Apartments Heliports","code":"N\/A","lat":35.171583,"lng":129.068139,"city":"Busan","country":"KR"},{"name":"Busan Metroplitan City Hall Heliport","code":"N\/A","lat":35.180552,"lng":129.075185,"city":"Busan","country":"KR"},{"name":"Busan Metrpolitan Police Agency Heliport","code":"N\/A","lat":35.179195,"lng":129.074504,"city":"Busan","country":"KR"},{"name":"Busan Metrpolitan Police Agency Heliport","code":"N\/A","lat":35.179195,"lng":129.074504,"city":"Busan","country":"KR"},{"name":"Busan Employment Center Heliport","code":"N\/A","lat":35.178347,"lng":129.074786,"city":"Busan","country":"KR"},{"name":"Korea Financial Investment Association Busan Branch Heliport","code":"N\/A","lat":35.178108,"lng":129.075812,"city":"Busan","country":"KR"},{"name":"Lotte Gallerium Heliport","code":"N\/A","lat":35.176248,"lng":129.073052,"city":"Busan","country":"KR"},{"name":"Excellent Yeonje Apartment Complex Heliport","code":"N\/A","lat":35.181782,"lng":129.076811,"city":"Busan","country":"KR"},{"name":"Kookje Daily News (Kookje Shinmum) Headquarters Heliport","code":"N\/A","lat":35.196361,"lng":129.079238,"city":"Busan","country":"KR"},{"name":"Xinhua Tower Apartments Heliport","code":"N\/A","lat":35.214563,"lng":129.07956,"city":"Busan","country":"KR"},{"name":"Busan Astar Apartments Heliport","code":"N\/A","lat":35.217413,"lng":129.082427,"city":"Busan","country":"KR"},{"name":"Hotel Oz Heliports","code":"N\/A","lat":35.217893,"lng":129.082886,"city":"Busan","country":"KR"},{"name":"Hanil Ordew Heliport","code":"N\/A","lat":35.155436,"lng":129.146379,"city":"Busan","country":"KR"},{"name":"Cooperative Skyline 80 Apartments Heliport","code":"N\/A","lat":35.218346,"lng":129.083287,"city":"Busan","country":"KR"},{"name":"SK Hub Olive Apartments Heliport","code":"N\/A","lat":35.219112,"lng":129.084137,"city":"Busan","country":"KR"},{"name":"Le Meilleur Dongra Town Apartments Heliport","code":"N\/A","lat":35.221217,"lng":129.083378,"city":"Busan","country":"KR"},{"name":"SK Hub Sky Apartments Heliports","code":"N\/A","lat":35.221557,"lng":129.084983,"city":"Busan","country":"KR"},{"name":"Woridul Spine Hospital","code":"N\/A","lat":35.222249,"lng":129.085407,"city":"Busan","country":"KR"},{"name":"Bugok-dong Prugio Apartments Heliports","code":"N\/A","lat":35.230142,"lng":129.090042,"city":"Busan","country":"KR"},{"name":"Songjeong-ri Heliport","code":"N\/A","lat":35.298031,"lng":129.136962,"city":"Songjeong","country":"KR"},{"name":"Sirang-ri Helipad","code":"N\/A","lat":35.194775,"lng":129.222782,"city":"Sirang-ri","country":"KR"},{"name":"Nakammin Hanil U & I Apartment Complex Heliports","code":"N\/A","lat":35.19587,"lng":129.092389,"city":"Busan","country":"KR"},{"name":"Bando Bora Skyview Apartments Heliports","code":"N\/A","lat":35.204784,"lng":129.069022,"city":"Busan","country":"KR"},{"name":"Yeonji Samick Apartments Heliports","code":"N\/A","lat":35.168568,"lng":129.049943,"city":"Busan","country":"KR"},{"name":"Sajik Sports Complex Auxiliary Stadium Heliport","code":"N\/A","lat":35.188589,"lng":129.054833,"city":"Busan","country":"KR"},{"name":"Woodmark Condominiums Heliports","code":"N\/A","lat":35.191759,"lng":129.065388,"city":"Busan","country":"KR"},{"name":"Lotte Castle Apartments Heliports","code":"N\/A","lat":35.191912,"lng":129.068893,"city":"Busan","country":"KR"},{"name":"Busan Myeongnyun IPark Heliports","code":"N\/A","lat":35.216309,"lng":129.08971,"city":"Busan","country":"KR"},{"name":"Geumjeong Fire Station Heliport","code":"N\/A","lat":35.244136,"lng":129.092671,"city":"Busan","country":"KR"},{"name":"Busan Pier 8 Heliport","code":"N\/A","lat":35.118159,"lng":129.070218,"city":"Busan","country":"KR"},{"name":"Dongwon Royal Duke Vista Apartments Heliports","code":"N\/A","lat":35.121699,"lng":129.044671,"city":"Busan","country":"KR"},{"name":"Hanjin SM Co. Ltd Heliport","code":"N\/A","lat":35.109744,"lng":129.039016,"city":"Busan","country":"KR"},{"name":"Busan Hotel Heliport","code":"N\/A","lat":35.100358,"lng":129.034628,"city":"Busan","country":"KR"},{"name":"Joong Ang Computer Mall Heliport","code":"N\/A","lat":35.100063,"lng":129.03709,"city":"Busan","country":"KR"},{"name":"Monte Bong-rae Heliport","code":"N\/A","lat":35.086256,"lng":129.053962,"city":"Busan (Yeoung-do)","country":"KR"},{"name":"Dongsam 1(il)-dong Heliport","code":"N\/A","lat":35.063861,"lng":129.066769,"city":"Busan (Yeoung-do)","country":"KR"},{"name":"53rd ROK Army Division 125th Regiment Heliport","code":"N\/A","lat":35.063286,"lng":129.079061,"city":"Busan (Yeoung-do)","country":"KR"},{"name":"Korea Maritime & Ocean University Heliport","code":"N\/A","lat":35.07411,"lng":129.086815,"city":"Busan (Yeoung-do)","country":"KR"},{"name":"Busan Coast Guard Base Heliport","code":"N\/A","lat":35.081868,"lng":129.078442,"city":"Busan (Yeoung-do)","country":"KR"},{"name":"Buam 3(sam)-dong East Heliport","code":"N\/A","lat":35.182463,"lng":129.024922,"city":"Busan","country":"KR"},{"name":"Buam 3(sam)-dong West Heliport","code":"N\/A","lat":35.180032,"lng":129.019725,"city":"Busan","country":"KR"},{"name":"Sanghaksan Heliport","code":"N\/A","lat":35.229931,"lng":129.050516,"city":"Busan","country":"KR"},{"name":"Yangsan Service Area Helipad","code":"N\/A","lat":35.323956,"lng":129.055358,"city":"Yangsan","country":"KR"},{"name":"Tae-king Heliport","code":"N\/A","lat":35.07829,"lng":129.005131,"city":"Busan","country":"KR"},{"name":"Goejeong 1(il)-dong Heliport","code":"N\/A","lat":35.092053,"lng":128.986489,"city":"Busan","country":"KR"},{"name":"Busan Dadae Jugong 2 Apartment Complex Heliports","code":"N\/A","lat":35.065044,"lng":128.982418,"city":"Busan","country":"KR"},{"name":"Jangnim 1(il)-dong Heliport","code":"N\/A","lat":35.065938,"lng":128.967283,"city":"Busan","country":"KR"},{"name":"Dangni-dong West Heliport","code":"N\/A","lat":35.122151,"lng":128.985927,"city":"Busan","country":"KR"},{"name":"Dangni-dong East Heliport","code":"N\/A","lat":35.123486,"lng":128.993705,"city":"Busan","country":"KR"},{"name":"Eomgwangsan Heliport","code":"N\/A","lat":35.135157,"lng":129.016819,"city":"Busan","country":"KR"},{"name":"Doosan We\u2019ve Cummins New Town Apartments Heliports","code":"N\/A","lat":35.131957,"lng":129.055018,"city":"Busan","country":"KR"},{"name":"Doosan We\u2019ve Poseidon 2 Apartments Heliports","code":"N\/A","lat":35.136607,"lng":129.064218,"city":"Busan","country":"KR"},{"name":"Jinheung Majestry War Apartments Heliports","code":"N\/A","lat":35.13793,"lng":129.065798,"city":"Busan","country":"KR"},{"name":"Dong-il Building Heliport","code":"N\/A","lat":35.139007,"lng":129.06337,"city":"Busan","country":"KR"},{"name":"Korea Telecommunications (KT) Heliport","code":"N\/A","lat":35.137972,"lng":129.06271,"city":"Busan","country":"KR"},{"name":"Samil Heliport","code":"N\/A","lat":35.136837,"lng":129.067005,"city":"Busan","country":"KR"},{"name":"Sejong Grandia Apartments Heliports","code":"N\/A","lat":35.136614,"lng":129.069185,"city":"Busan (Munhyeon-dong)","country":"KR"},{"name":"Samsan Lovech Apartments Heliport","code":"N\/A","lat":35.136721,"lng":129.069716,"city":"Busan","country":"KR"},{"name":"Samsung Convention Hill Apartments Heliports","code":"N\/A","lat":35.13916,"lng":129.068386,"city":"Busan","country":"KR"},{"name":"Bumil Station Irum Apartments Heliport","code":"N\/A","lat":35.144523,"lng":129.061007,"city":"Busan","country":"KR"},{"name":"Vervill 2 Apartments Heliports","code":"N\/A","lat":35.145293,"lng":129.058515,"city":"Busan","country":"KR"},{"name":"Brahmin LH Apartments Heliports","code":"N\/A","lat":35.14787,"lng":129.055538,"city":"Busan","country":"KR"},{"name":"Busan International Finance Center (BIFC) Heliport","code":"N\/A","lat":35.148385,"lng":129.066173,"city":"Busan","country":"KR"},{"name":"Seung In Nobil Apartments Heliport","code":"N\/A","lat":35.14869,"lng":129.060916,"city":"Busan","country":"KR"},{"name":"Busan Transportation Corporation Heliport","code":"N\/A","lat":35.150091,"lng":129.059948,"city":"Busan","country":"KR"},{"name":"Samsung Finance Plaza Heliport","code":"N\/A","lat":35.150154,"lng":129.05902,"city":"Busan","country":"KR"},{"name":"Dynamic Guesthouse Heliports","code":"N\/A","lat":35.149993,"lng":129.057888,"city":"Busan","country":"KR"},{"name":"Vertavill Apartments Heliport","code":"N\/A","lat":35.154265,"lng":129.055645,"city":"Busan","country":"KR"},{"name":"Zen Backpackers Hotel Heliport","code":"N\/A","lat":35.154438,"lng":129.053873,"city":"Busan","country":"KR"},{"name":"Hansol Polaris Hotel Heliport","code":"N\/A","lat":35.157448,"lng":129.05408,"city":"Busan","country":"KR"},{"name":"You One Golden Tower Heliport","code":"N\/A","lat":35.159706,"lng":129.05571,"city":"Busan","country":"KR"},{"name":"Semyeon Dongmun Goodmorning Hill Apartment Complex Heliports","code":"N\/A","lat":35.162093,"lng":129.053341,"city":"Busan","country":"KR"},{"name":"Semyeon Sweet Dot Home Park Apartment Complex Heliports","code":"N\/A","lat":35.161742,"lng":129.051453,"city":"Busan","country":"KR"},{"name":"Busanjin-gu Office Heliport","code":"N\/A","lat":35.163143,"lng":129.053268,"city":"Busan","country":"KR"},{"name":"Semyeon Sweet Dot Home Sky Apartment Complex Heliports","code":"N\/A","lat":35.163569,"lng":129.050876,"city":"Busan","country":"KR"},{"name":"Santeview Apartments Heliport","code":"N\/A","lat":35.15401,"lng":129.024549,"city":"Busan","country":"KR"},{"name":"Gaya Dongwon Royal Duke Apartment Complex Heliport","code":"N\/A","lat":35.154374,"lng":129.030394,"city":"Busan","country":"KR"},{"name":"Seomyeon e-Pyeonhansesang Apartment Complex Heliports","code":"N\/A","lat":35.156556,"lng":129.049305,"city":"Busan","country":"KR"},{"name":"Ministry of Food & Drug Safety Busan Office Heliport","code":"N\/A","lat":35.142051,"lng":129.061316,"city":"Busan","country":"KR"},{"name":"Good Samsun Hospital Heliport","code":"N\/A","lat":35.150715,"lng":129.008329,"city":"Busan","country":"KR"},{"name":"Danggam-dong Heliport","code":"N\/A","lat":35.165085,"lng":129.016248,"city":"Busan","country":"KR"},{"name":"Crown Harbor Hotel Heliport","code":"N\/A","lat":35.107823,"lng":129.036954,"city":"Busan","country":"KR"},{"name":"Southern Central Care Hospital Heliport","code":"N\/A","lat":35.092809,"lng":129.024559,"city":"Busan","country":"KR"},{"name":"Songdo Topsville Apartments Heliport","code":"N\/A","lat":35.078205,"lng":129.01866,"city":"Busan","country":"KR"},{"name":"Amnangongwon-ro Heliport","code":"N\/A","lat":35.065533,"lng":129.017353,"city":"Busan","country":"KR"},{"name":"Tusong Bando Heliport","code":"N\/A","lat":35.046076,"lng":128.996375,"city":"Busan","country":"KR"},{"name":"Dadae-dong Heliport","code":"N\/A","lat":35.061131,"lng":128.988704,"city":"Busan","country":"KR"},{"name":"Mol-Udae Heliport","code":"N\/A","lat":35.039737,"lng":128.969217,"city":"Busan","country":"KR"},{"name":"Dayeong-dong Prjio Apartments Heliports","code":"N\/A","lat":35.139123,"lng":129.102123,"city":"Busan","country":"KR"},{"name":"21 Century City Building Heliport","code":"N\/A","lat":35.137403,"lng":129.100522,"city":"Busan","country":"KR"},{"name":"Axel Towers Apartments Heliports","code":"N\/A","lat":35.139934,"lng":129.106092,"city":"Busan","country":"KR"},{"name":"Hwangnyeong Mountain View Heliport","code":"N\/A","lat":35.157969,"lng":129.082588,"city":"Busan","country":"KR"},{"name":"Axel Towers Apartments Heliports","code":"N\/A","lat":35.139934,"lng":129.106092,"city":"Busan","country":"KR"},{"name":"GS Heights Xi Apartments Heliports","code":"N\/A","lat":35.13306,"lng":129.110859,"city":"Busan","country":"KR"},{"name":"Yongho-dong Heliport","code":"N\/A","lat":35.125092,"lng":129.121018,"city":"Busan","country":"KR"},{"name":"Hanjin Family Town Apartments Heliport","code":"N\/A","lat":35.112994,"lng":129.107679,"city":"Busan","country":"KR"},{"name":"Igidae Coastal Walk Heliport","code":"N\/A","lat":35.117206,"lng":129.121818,"city":"Busan","country":"KR"},{"name":"Oryukdo SK Apartments Heliports","code":"N\/A","lat":35.10239,"lng":129.117819,"city":"Busan","country":"KR"},{"name":"Busan National University Hospital Heliports","code":"N\/A","lat":35.10094,"lng":129.017926,"city":"Busan","country":"KR"},{"name":"Youngdong Beach Tower Apartments Heliports","code":"N\/A","lat":35.056227,"lng":128.971931,"city":"Busan","country":"KR"},{"name":"Kyungpook National University Hospital Heliport","code":"N\/A","lat":35.866256,"lng":128.603744,"city":"Daegu","country":"KR"},{"name":"Centro Palace Apartments Heliports","code":"N\/A","lat":35.86162,"lng":128.600912,"city":"Daegu","country":"KR"},{"name":"SK Hub Sky Apartments Heliport","code":"N\/A","lat":35.861957,"lng":128.592097,"city":"Daegu","country":"KR"},{"name":"Samjeong Green Core Apartments Heliports","code":"N\/A","lat":35.863078,"lng":128.591637,"city":"Daegu","country":"KR"},{"name":"Samsung Life Building Heliport","code":"N\/A","lat":35.865989,"lng":128.592325,"city":"Daegu","country":"KR"},{"name":"Alianz Tower Building Heliport","code":"N\/A","lat":35.865613,"lng":128.588241,"city":"Daegu","country":"KR"},{"name":"Shinseong Miso City Apartments Heliports","code":"N\/A","lat":35.866767,"lng":128.588228,"city":"Daegu","country":"KR"},{"name":"Suseong Kolon Hanulche Apartments Heliports","code":"N\/A","lat":35.855368,"lng":128.617625,"city":"Daegu","country":"KR"},{"name":"LIG Daegu Heliport","code":"N\/A","lat":35.859619,"lng":128.62445,"city":"Daegu","country":"KR"},{"name":"Mercury Brownstone Apartments Heliport","code":"N\/A","lat":35.859929,"lng":128.626599,"city":"Daegu","country":"KR"},{"name":"Park Regency Hotel Heliport","code":"N\/A","lat":35.860222,"lng":128.625107,"city":"Daegu","country":"KR"},{"name":"MBC Cinema New Building Heliport","code":"N\/A","lat":35.86604,"lng":128.628378,"city":"Daegu","country":"KR"},{"name":"Hyundai Hypherion Apartments Heliport","code":"N\/A","lat":35.867459,"lng":128.62496,"city":"Daegu","country":"KR"},{"name":"Hwaeseong Forest Park Dream Apartments Heliports","code":"N\/A","lat":35.863691,"lng":128.627235,"city":"Daegu","country":"KR"},{"name":"Yeungnam University Hospital Heliport","code":"N\/A","lat":35.847334,"lng":128.584741,"city":"Daegu","country":"KR"},{"name":"Icheon-dong Heliport","code":"N\/A","lat":35.856366,"lng":128.662609,"city":"Daegu (Icheon-dong)","country":"KR"},{"name":"Dalsung VORTAC (TGU) Helipad","code":"N\/A","lat":35.809106,"lng":128.589964,"city":"Daegu (Apsansunhwan-ro)","country":"KR"},{"name":"Geumobong Heliport","code":"N\/A","lat":35.789764,"lng":129.224831,"city":"Gyeongju","country":"KR"},{"name":"Eomul-dong HAWK SAM Site Heliport","code":"N\/A","lat":35.561428,"lng":129.411426,"city":"Ulsan (Eomul-dong)","country":"KR"},{"name":"Hwabong-dong Radio Station Heliport","code":"N\/A","lat":35.59224,"lng":129.399772,"city":"Ulsan (Hwabong-dong)","country":"KR"},{"name":"Gunam-gun Army Base Heliport","code":"N\/A","lat":35.588324,"lng":129.427684,"city":"Ulsan (Gunam-gun)","country":"KR"},{"name":"Hyundai Heavy Industries Second Plant Heliport","code":"N\/A","lat":35.481273,"lng":129.40441,"city":"Ulsan","country":"KR"},{"name":"Hyundai Mipo Dockyard Onsan Heliport","code":"N\/A","lat":35.431153,"lng":129.359997,"city":"Onsan","country":"KR"},{"name":"Busan Jangan West Rest Area Helipad","code":"N\/A","lat":35.37815,"lng":129.246322,"city":"Busan","country":"KR"},{"name":"Busan Jangan East Rest Area Helipad","code":"N\/A","lat":35.382347,"lng":129.248566,"city":"Busan","country":"KR"},{"name":"Yeongcheong Korea Army Academy Heliport","code":"N\/A","lat":35.990489,"lng":128.99042,"city":"Yeongcheon","country":"KR"},{"name":"Cheongbongsan Heliport","code":"N\/A","lat":37.228686,"lng":129.28661,"city":"Samcheok","country":"KR"},{"name":"Gyogoki Heliport","code":"N\/A","lat":37.358844,"lng":129.179476,"city":"Samcheok","country":"KR"},{"name":"Anhyeon-dong HAWK SAM Site Heliport","code":"N\/A","lat":37.796566,"lng":128.868382,"city":"Gangneung","country":"KR"},{"name":"ROK Army 102nd Armor Brigade Ammunition Depot Heliport","code":"N\/A","lat":38.130189,"lng":128.594233,"city":"Yangyang","country":"KR"},{"name":"Gwanmobang Heliport","code":"N\/A","lat":38.111422,"lng":128.532144,"city":"Yangyang","country":"KR"},{"name":"Sanbok-ri Heliport","code":"N\/A","lat":38.148727,"lng":128.53414,"city":"Yangyang","country":"KR"},{"name":"Guseong-gil Heliport","code":"N\/A","lat":38.324476,"lng":128.491474,"city":"Goseong-gun","country":"KR"},{"name":"Banam-ri ROK Army Base Heliport","code":"N\/A","lat":38.413741,"lng":128.46516,"city":"Goseong-gun","country":"KR"},{"name":"Goseong Heliport","code":"N\/A","lat":38.586093,"lng":128.375963,"city":"Goseong","country":"KR"},{"name":"Masanbong Helipad","code":"N\/A","lat":38.267919,"lng":128.399595,"city":"Heul-ri","country":"KR"},{"name":"I-ri Helipad","code":"N\/A","lat":38.078158,"lng":127.960785,"city":"Yanggu-gun","country":"KR"},{"name":"Cheonmi-ri South Heliport","code":"N\/A","lat":38.247439,"lng":127.871211,"city":"Cheonmi-ri","country":"KR"},{"name":"Cheonmi-ri South Heliport","code":"N\/A","lat":38.247439,"lng":127.871211,"city":"Cheonmi-ri","country":"KR"},{"name":"Cheonmi-ri South Heliport","code":"N\/A","lat":38.247439,"lng":127.871211,"city":"Cheonmi-ri","country":"KR"},{"name":"Cheonmi-ri South Heliport","code":"N\/A","lat":38.247439,"lng":127.871211,"city":"Cheonmi-ri","country":"KR"},{"name":"Cheonmi-ri South Heliport","code":"N\/A","lat":38.247439,"lng":127.871211,"city":"Cheonmi-ri","country":"KR"},{"name":"Cheonmi-ri South Heliport","code":"N\/A","lat":38.247439,"lng":127.871211,"city":"Cheonmi-ri","country":"KR"},{"name":"Cheonmi-ri South Heliport","code":"N\/A","lat":38.247439,"lng":127.871211,"city":"Cheonmi-ri","country":"KR"},{"name":"Cheonmi-ri South Heliport","code":"N\/A","lat":38.247439,"lng":127.871211,"city":"Cheonmi-ri","country":"KR"},{"name":"Cheonmi-ri South Heliport","code":"N\/A","lat":38.247439,"lng":127.871211,"city":"Cheonmi-ri","country":"KR"},{"name":"Cheonmi-ri South Heliport","code":"N\/A","lat":38.247439,"lng":127.871211,"city":"Cheonmi-ri","country":"KR"},{"name":"Cheonmi-ri South Heliport","code":"N\/A","lat":38.247439,"lng":127.871211,"city":"Cheonmi-ri","country":"KR"},{"name":"Cheonmi-ri South Heliport","code":"N\/A","lat":38.247439,"lng":127.871211,"city":"Cheonmi-ri","country":"KR"},{"name":"Cheonmi-ri South Heliport","code":"N\/A","lat":38.247439,"lng":127.871211,"city":"Cheonmi-ri","country":"KR"},{"name":"Cheonmi-ri South Heliport","code":"N\/A","lat":38.247439,"lng":127.871211,"city":"Cheonmi-ri","country":"KR"},{"name":"Cheonmi-ri South Heliport","code":"N\/A","lat":38.247439,"lng":127.871211,"city":"Cheonmi-ri","country":"KR"},{"name":"Cheonmi-ri South Heliport","code":"N\/A","lat":38.247439,"lng":127.871211,"city":"Cheonmi-ri","country":"KR"},{"name":"Gunryang-ri Heliport","code":"N\/A","lat":38.171839,"lng":127.956168,"city":"Gunryang-ri","country":"KR"},{"name":"Jinhyeon-ri Helipad","code":"N\/A","lat":38.287111,"lng":127.606233,"city":"Jinhyeon-ri","country":"KR"},{"name":"Sungam-gogae Heliport","code":"N\/A","lat":38.287701,"lng":127.587622,"city":"Jinhyeon-ri","country":"KR"},{"name":"Amjeong-ri Artillery Base Heliport","code":"N\/A","lat":38.287736,"lng":127.464988,"city":"Amjeong-ri","country":"KR"},{"name":"Eupnae-ri Heliport","code":"N\/A","lat":38.280319,"lng":127.429841,"city":"Eupnae-ri","country":"KR"},{"name":"Haksa-ri Heliport","code":"N\/A","lat":38.277543,"lng":127.404087,"city":"Haksa-ri","country":"KR"},{"name":"Cheongsin-ro Helipad","code":"N\/A","lat":37.980518,"lng":127.075181,"city":"Cheongsin-ro","country":"KR"},{"name":"Goneung-ri South Helipad","code":"N\/A","lat":38.003355,"lng":127.033918,"city":"Goneung-ri","country":"KR"},{"name":"Goneung-ri North Helipad","code":"N\/A","lat":38.005703,"lng":127.028476,"city":"Goneung-ri","country":"KR"},{"name":"Sanjeong-ri Helipad","code":"N\/A","lat":38.05856,"lng":127.306476,"city":"Sanjeong-ri","country":"KR"},{"name":"Jangam-ri Heliport","code":"N\/A","lat":38.041219,"lng":127.344241,"city":"Jangam-ri","country":"KR"},{"name":"Gangpo-ri Helipad","code":"N\/A","lat":38.122279,"lng":127.306467,"city":"Gangpo-ri","country":"KR"},{"name":"Sincheorueon-ri South Helipad","code":"N\/A","lat":38.126683,"lng":127.307278,"city":"Sincheorueon-ri","country":"KR"},{"name":"Sincheorueon-ri North Helipad","code":"N\/A","lat":38.130707,"lng":127.30907,"city":"Sincheorueon-ri","country":"KR"},{"name":"Yangji-ri Heliport","code":"N\/A","lat":38.270298,"lng":127.276241,"city":"Yangji-ri","country":"KR"},{"name":"Nightmare Range Heliport","code":"N\/A","lat":38.071415,"lng":127.34894,"city":"Jangam-ri","country":"KR"},{"name":"Habongam-dong Helipad","code":"N\/A","lat":37.958458,"lng":127.066208,"city":"Dongducheon","country":"KR"},{"name":"Hill 754 Helipad","code":"N\/A","lat":37.874088,"lng":127.129524,"city":"Dongducheon","country":"KR"},{"name":"Gaekhyeon-ri Heliport","code":"N\/A","lat":37.963991,"lng":126.968715,"city":"Gaekhyeon-ri","country":"KR"},{"name":"Gaekhyeon-ri Helipad","code":"N\/A","lat":37.949114,"lng":126.947613,"city":"Gaekhyeon-ri","country":"KR"},{"name":"Castle Hill Heliport","code":"N\/A","lat":37.964333,"lng":126.919483,"city":"Gueup-ri","country":"KR"},{"name":"Jikcheon-ri Helipad","code":"N\/A","lat":37.895453,"lng":126.899699,"city":"Jikcheon-ri","country":"KR"},{"name":"Camp Ethan Allen Hill 496 Helipad","code":"N\/A","lat":37.910833,"lng":126.874016,"city":"Neulno-ri","country":"KR"},{"name":"Surihol-ro Heliport","code":"N\/A","lat":37.918985,"lng":126.880725,"city":"Surihol-ro","country":"KR"},{"name":"Ungdam-ri Heliport","code":"N\/A","lat":37.903403,"lng":126.888505,"city":"Ungdam-ri","country":"KR"},{"name":"Man-wolbong Heliport","code":"N\/A","lat":37.908633,"lng":126.915502,"city":"Ungdam-ri","country":"KR"},{"name":"Mugeon-ri Heliport","code":"N\/A","lat":37.915037,"lng":126.915518,"city":"Mugeon-ri","country":"KR"},{"name":"Mugeon-ri Helipad","code":"N\/A","lat":37.920831,"lng":126.907738,"city":"Mugeon-ri","country":"KR"},{"name":"Surihol-ro Helipad","code":"N\/A","lat":37.936386,"lng":126.88931,"city":"Surihol-ro","country":"KR"},{"name":"Deokcheon-ri Helipad","code":"N\/A","lat":37.923901,"lng":126.87669,"city":"Deokcheon-ri","country":"KR"},{"name":"Deokcheon-ri South Helipad","code":"N\/A","lat":37.922411,"lng":126.877646,"city":"Deokcheon-ri","country":"KR"},{"name":"2\/38th INF US Army Heliport","code":"N\/A","lat":37.920332,"lng":126.858675,"city":"Neulno-ri","country":"KR"},{"name":"Dongmun-ri Helipad","code":"N\/A","lat":37.886803,"lng":126.865811,"city":"Dongmun-ri","country":"KR"},{"name":"Icheon-ri South Helipad","code":"N\/A","lat":37.871537,"lng":126.833789,"city":"Icheon-ri","country":"KR"},{"name":"Icheon-ri North Helipad","code":"N\/A","lat":37.880873,"lng":126.830784,"city":"Icheon-ri","country":"KR"},{"name":"Cheongsong-ro Heliport","code":"N\/A","lat":37.915676,"lng":126.84046,"city":"Cheongsong-ro","country":"KR"},{"name":"Janghyeon-ri Heliport","code":"N\/A","lat":37.980519,"lng":126.960206,"city":"Janghyeon-ri","country":"KR"},{"name":"Eoyuji-ri Heliport","code":"N\/A","lat":38.0009,"lng":126.996744,"city":"Eoyuji-ri","country":"KR"},{"name":"Yangwon-ri Heliport","code":"N\/A","lat":37.978832,"lng":127.048952,"city":"Yangwon-ri","country":"KR"},{"name":"Lcd-ro Heliport","code":"N\/A","lat":37.809119,"lng":126.769524,"city":"Lcd-ro","country":"KR"},{"name":"Lcd-ro Helipad","code":"N\/A","lat":37.80876,"lng":126.771675,"city":"Lcd-ro","country":"KR"},{"name":"Majang-ri Helipad","code":"N\/A","lat":37.782745,"lng":126.895197,"city":"Majang-ri","country":"KR"},{"name":"Changman-ri Helipad","code":"N\/A","lat":37.794351,"lng":126.887533,"city":"Changman-ri","country":"KR"},{"name":"Yukgok-ri North Heliport","code":"N\/A","lat":37.897465,"lng":126.831007,"city":"Yukgoki-ri","country":"KR"},{"name":"Dapgok-ri Heliport","code":"N\/A","lat":37.955285,"lng":126.872197,"city":"Dapgok-ri","country":"KR"},{"name":"Guksa-ro Helipad","code":"N\/A","lat":37.95696,"lng":126.881857,"city":"Guksa-ro","country":"KR"},{"name":"Guksa-ro Heliport","code":"N\/A","lat":37.959019,"lng":126.879065,"city":"Guksa-ro","country":"KR"},{"name":"Gajeon-ri Helipad","code":"N\/A","lat":38.376251,"lng":128.238116,"city":"Gajeon-ri","country":"KR"},{"name":"Sangwon-ri North Helipad","code":"N\/A","lat":38.377131,"lng":128.272907,"city":"Sangwon-ri","country":"KR"},{"name":"Tapyeol-ri North Heliport","code":"N\/A","lat":38.406987,"lng":128.349232,"city":"Tapyeol-ri","country":"KR"},{"name":"Geumsu-ri North Heliport","code":"N\/A","lat":38.370709,"lng":128.454432,"city":"Geumsu-ri","country":"KR"},{"name":"Geumsu-ri South Heliport","code":"N\/A","lat":38.365574,"lng":128.453165,"city":"Geumsu-ri","country":"KR"},{"name":"Hyangmok-ri Heliport","code":"N\/A","lat":38.364329,"lng":128.480222,"city":"Hyangmok-ri","country":"KR"},{"name":"Gonghyeonjinhanok-gil Heliport","code":"N\/A","lat":38.349471,"lng":128.499833,"city":"Gonghyeonjinhanok-gil","country":"KR"},{"name":"Tapdong-ri Heliport","code":"N\/A","lat":38.349058,"lng":128.470593,"city":"Tapdong-ri","country":"KR"},{"name":"Gwandaebawi-gil Heliport","code":"N\/A","lat":38.33683,"lng":128.438015,"city":"Gwandaebawi-gil","country":"KR"},{"name":"Seonyusil-ri Helipad","code":"N\/A","lat":38.316143,"lng":128.433781,"city":"Seonyusil-ri","country":"KR"},{"name":"Guseong-ri Heliport","code":"N\/A","lat":38.304964,"lng":128.477857,"city":"Guseong-ri","country":"KR"},{"name":"Seongdae-ri Heliport","code":"N\/A","lat":38.237394,"lng":128.487511,"city":"Seongdae-ri","country":"KR"},{"name":"Domun-dong Helipad","code":"N\/A","lat":38.174028,"lng":128.53439,"city":"Domun-dong","country":"KR"},{"name":"Donghae-daero Heliport","code":"N\/A","lat":38.008256,"lng":128.722311,"city":"Donghae-daero","country":"KR"},{"name":"Jindong-ri Helipad","code":"N\/A","lat":37.996748,"lng":128.502185,"city":"Jindong-ri","country":"KR"},{"name":"Jangyo-ri Heliport","code":"N\/A","lat":37.973747,"lng":128.709659,"city":"Jangyo-ri","country":"KR"},{"name":"Sangwolcheon-ri Heliport","code":"N\/A","lat":37.933425,"lng":128.697561,"city":"Sangwolcheon-ri","country":"KR"},{"name":"Misan-ri Helipad","code":"N\/A","lat":37.883798,"lng":128.409074,"city":"Misan-ri","country":"KR"},{"name":"Jangdeok-ri Heliport","code":"N\/A","lat":37.864317,"lng":128.788315,"city":"Jangdeok-ri","country":"KR"},{"name":"Durobong Helipad","code":"N\/A","lat":37.821341,"lng":128.58273,"city":"Myeonggae-ri","country":"KR"},{"name":"Hoenggye-ri Heliport","code":"N\/A","lat":37.756101,"lng":128.663547,"city":"Hoenggye-ri","country":"KR"},{"name":"Horyeongbong Helipad","code":"N\/A","lat":37.779782,"lng":128.533006,"city":"Dongsan-ri","country":"KR"},{"name":"Gyebangsan Helipad","code":"N\/A","lat":37.728296,"lng":128.465511,"city":"Nodong-ri","country":"KR"},{"name":"Imokjeong-ri Highway Stopover Heliport","code":"N\/A","lat":37.61008,"lng":128.4631,"city":"Imokjeong-ri","country":"KR"},{"name":"Pyeongchang Service Area Heliport","code":"N\/A","lat":37.605872,"lng":128.45403,"city":"Gyeonggang-ro","country":"KR"},{"name":"Sangwol Mountain Helipad","code":"N\/A","lat":37.493111,"lng":128.984937,"city":"Igi-dong","country":"KR"},{"name":"East Coast Marine Police Training Center Heliport","code":"N\/A","lat":37.33188,"lng":129.264029,"city":"Gongyangwang-gil","country":"KR"},{"name":"Neungamdeoksan Helipad","code":"N\/A","lat":37.267575,"lng":128.550594,"city":"Munsan-ri","country":"KR"},{"name":"Goseong-ri Helipad","code":"N\/A","lat":37.221331,"lng":128.584105,"city":"Goseong-ri","country":"KR"},{"name":"Uirim-ro Heliport","code":"N\/A","lat":37.211221,"lng":128.637867,"city":"Uirim-ro","country":"KR"},{"name":"Sabuk-ri Heliport","code":"N\/A","lat":37.218616,"lng":128.822417,"city":"Sabuk-ri","country":"KR"},{"name":"Icheon-ri Helipad","code":"N\/A","lat":37.186916,"lng":129.240375,"city":"Icheon-ri","country":"KR"},{"name":"G-607 Heliport","code":"N\/A","lat":37.166597,"lng":128.477045,"city":"Deokpo-ri","country":"KR"},{"name":"Ssangyong Cement Yeongwol Plant Heliport","code":"N\/A","lat":37.184139,"lng":128.320461,"city":"Hutan-ro","country":"KR"},{"name":"Yeonsang-ri Heliport","code":"N\/A","lat":37.165909,"lng":128.622132,"city":"Yeonsang-ri","country":"KR"},{"name":"Nagok-ri Heliport","code":"N\/A","lat":37.13874,"lng":129.365384,"city":"Nagok-ri","country":"KR"},{"name":"Naedeok-ri Helipad","code":"N\/A","lat":37.13844,"lng":128.823459,"city":"Naedeok-ri","country":"KR"},{"name":"Mount Sam-dong Heliport","code":"N\/A","lat":37.07818,"lng":128.80344,"city":"Deokgu-ri","country":"KR"},{"name":"Deokgu-ri Heliport","code":"N\/A","lat":37.074258,"lng":128.807622,"city":"Deokgu-ri","country":"KR"},{"name":"Busoebong Helipad","code":"N\/A","lat":37.091798,"lng":128.92236,"city":"Hyeol-dong","country":"KR"},{"name":"Hanul Nuclear Power Plant Heliport","code":"N\/A","lat":37.097471,"lng":129.371017,"city":"Uljinbuk-ro","country":"KR"},{"name":"Jagaebong Helipad","code":"N\/A","lat":36.996056,"lng":128.611941,"city":"Socheon-ri","country":"KR"},{"name":"Bagdallyeong Heliport","code":"N\/A","lat":37.028063,"lng":128.753976,"city":"Ojeon-ri","country":"KR"},{"name":"Sucheol-ri Heliport","code":"N\/A","lat":36.899608,"lng":128.437732,"city":"Sucheol-ri","country":"KR"},{"name":"Yeongju Emergency Runway Airfield","code":"N\/A","lat":36.837592,"lng":128.579607,"city":"Sangjul-dong","country":"KR"},{"name":"G-603 Heliport","code":"N\/A","lat":36.835617,"lng":128.592702,"city":"Sinjae-ro","country":"KR"},{"name":"Chungbuk Provincial Police Agency Heliport","code":"N\/A","lat":36.675574,"lng":127.500431,"city":"Chungbuk","country":"KR"},{"name":"Yullyang-dong Helipad","code":"N\/A","lat":36.672715,"lng":127.50898,"city":"Yullyang-dong","country":"KR"},{"name":"Namsan-ri Helipad","code":"N\/A","lat":36.010232,"lng":128.642659,"city":"Namsan-ri","country":"KR"},{"name":"Yeongcheon Ammo Depot Heliport","code":"N\/A","lat":35.957878,"lng":128.9933,"city":"Daeseong-ri","country":"KR"},{"name":"Bulguksa Heliport","code":"N\/A","lat":35.789833,"lng":129.349814,"city":"Jinhyeon-dong","country":"KR"},{"name":"Wolsan-ri Stopover Heliport","code":"N\/A","lat":35.725575,"lng":129.194153,"city":"Wolsan-ri","country":"KR"},{"name":"Deokcheon-ri Heliport","code":"N\/A","lat":35.284096,"lng":128.675084,"city":"Deokcheon-ri","country":"KR"},{"name":"Singimhae KEPCO Electrrical Substation Heliport","code":"N\/A","lat":35.220165,"lng":128.776299,"city":"Sanbon-ri","country":"KR"},{"name":"Namji Emergency Airfield","code":"N\/A","lat":35.42819,"lng":128.510084,"city":"Docheon-myeon","country":"KR"},{"name":"Masan Stadium Heliport","code":"N\/A","lat":35.222952,"lng":128.583626,"city":"Masan","country":"KR"},{"name":"ROK Air Force Education & Training Heliport","code":"N\/A","lat":35.190489,"lng":128.149558,"city":"Soksa-ri","country":"KR"},{"name":"Jangsa-ri Heliport","code":"N\/A","lat":35.206043,"lng":128.185796,"city":"Jangsa-ri","country":"KR"},{"name":"Gapo-dong Wharf Heliport","code":"N\/A","lat":35.174179,"lng":128.577062,"city":"Gapo-dong","country":"KR"},{"name":"Gamcheon-ri Heliport","code":"N\/A","lat":35.210092,"lng":128.53549,"city":"Gamcheon-ri","country":"KR"},{"name":"Pyeongam-ri Heliport","code":"N\/A","lat":35.16916,"lng":128.419613,"city":"Pyeongam-ri","country":"KR"},{"name":"Budo Heliport","code":"N\/A","lat":35.104315,"lng":128.655898,"city":"Budo Island","country":"KR"},{"name":"Jamdo Heliport","code":"N\/A","lat":35.059128,"lng":128.666564,"city":"Jamdo Island","country":"KR"},{"name":"Yeojwa-dong Helipad","code":"N\/A","lat":35.164643,"lng":128.649444,"city":"Yeojwa-dong","country":"KR"},{"name":"Daehang-dong Heliport","code":"N\/A","lat":34.990968,"lng":128.829038,"city":"Daehang-dong","country":"KR"},{"name":"Daecheong-ri Heliport","code":"N\/A","lat":35.165286,"lng":128.746465,"city":"Daecheong-ri","country":"KR"},{"name":"Mukbang-ri Heliport","code":"N\/A","lat":35.272876,"lng":128.911372,"city":"Mukbang-ri","country":"KR"},{"name":"Mulgeum-ri Heliport","code":"N\/A","lat":35.320103,"lng":128.976388,"city":"Mulgeum-ri","country":"KR"},{"name":"Daegu Stadium Complex Heliport","code":"N\/A","lat":35.826041,"lng":128.685922,"city":"Daeheung-dong","country":"KR"},{"name":"Cheongwon Rest Area Heliport","code":"N\/A","lat":36.716587,"lng":127.347062,"city":"Sajeong-ri","country":"KR"},{"name":"Jeongchon-ri Heliport","code":"N\/A","lat":36.883535,"lng":127.188792,"city":"Jeongchon-ri","country":"KR"},{"name":"Ipjang Service Area Heliport","code":"N\/A","lat":36.941984,"lng":127.190264,"city":"Gasan-ri","country":"KR"},{"name":"Lotte Castle Apartments Heliports","code":"N\/A","lat":37.558506,"lng":126.981689,"city":"Seoul","country":"KR"},{"name":"State Tower Building Heliport","code":"N\/A","lat":37.560458,"lng":126.9829,"city":"Seoul","country":"KR"},{"name":"Prime Towers Heliports","code":"N\/A","lat":37.559522,"lng":126.983274,"city":"Seoul","country":"KR"},{"name":"Woori Bank Building Heliport","code":"N\/A","lat":37.559422,"lng":126.981646,"city":"Seoul","country":"KR"},{"name":"Shinsegae Department Store Annex Heliport","code":"N\/A","lat":37.560421,"lng":126.980444,"city":"Seoul","country":"KR"},{"name":"Mesa Family Fashion Mall Heliport","code":"N\/A","lat":37.560455,"lng":126.979605,"city":"Seoul","country":"KR"},{"name":"Seoul Centrol Post Office Building (Post Tower) Heliports","code":"N\/A","lat":37.561925,"lng":126.982201,"city":"Seoul","country":"KR"},{"name":"Bank of Korea Building Heliport","code":"N\/A","lat":37.562709,"lng":126.979824,"city":"Seoul","country":"KR"},{"name":"Hanjin Building Heliport","code":"N\/A","lat":37.563185,"lng":126.981395,"city":"Seoul","country":"KR"},{"name":"Lotte Insurance Building Heliport","code":"N\/A","lat":37.559548,"lng":126.976208,"city":"Seoul","country":"KR"},{"name":"Shinhan Bank Heliport","code":"N\/A","lat":37.561236,"lng":126.974544,"city":"Seoul","country":"KR"},{"name":"Samsung Life Insurance Building Heliport","code":"N\/A","lat":37.561848,"lng":126.974892,"city":"Seoul","country":"KR"},{"name":"Samsung Main Building Heliport","code":"N\/A","lat":37.562584,"lng":126.975667,"city":"Seoul","country":"KR"},{"name":"Seoul City Hall Heliport","code":"N\/A","lat":37.563121,"lng":126.975926,"city":"Seoul","country":"KR"},{"name":"Korean Air Building Heliport","code":"N\/A","lat":37.563796,"lng":126.974076,"city":"Seoul","country":"KR"},{"name":"Boram Thayer Apartments Heliport","code":"N\/A","lat":35.138506,"lng":129.067442,"city":"Busan","country":"KR"},{"name":"Brown Suites Hotel Heliports","code":"N\/A","lat":37.560866,"lng":126.96834,"city":"Seoul","country":"KR"},{"name":"Donghwa Building Heliport","code":"N\/A","lat":37.56267,"lng":126.973134,"city":"Seoul","country":"KR"},{"name":"HSBC Building Heliport","code":"N\/A","lat":37.560197,"lng":126.973013,"city":"Seoul","country":"KR"},{"name":"Hyundai Camelia Haute Apartments Heliports","code":"N\/A","lat":35.15785,"lng":129.150325,"city":"Busan","country":"KR"},{"name":"Ing Insurance Heliport","code":"N\/A","lat":37.560964,"lng":126.97247,"city":"Seoul","country":"KR"},{"name":"Joongang Daily Building Heliport","code":"N\/A","lat":37.561657,"lng":126.970834,"city":"Seoul","country":"KR"},{"name":"JTBC Building Heliport","code":"N\/A","lat":37.561036,"lng":126.971548,"city":"Seoul","country":"KR"},{"name":"Korea Chamber of Commerce and Industry Heliport","code":"N\/A","lat":37.561161,"lng":126.973288,"city":"Seoul","country":"KR"},{"name":"Seoul Metropolitan Government Heliport","code":"N\/A","lat":37.562536,"lng":126.968599,"city":"Seoul","country":"KR"},{"name":"Korea Express Building Heliport","code":"N\/A","lat":37.561576,"lng":126.972961,"city":"Seoul","country":"KR"},{"name":"Manjaedo Heliport","code":"N\/A","lat":34.208192,"lng":125.470632,"city":"Heuksan-myeon","country":"KR"},{"name":"Ramada Hotel & Suites Heliports","code":"N\/A","lat":37.560079,"lng":126.972315,"city":"Seoul","country":"KR"},{"name":"Korea Economic Daily Heliport","code":"N\/A","lat":37.560251,"lng":126.967193,"city":"Seoul","country":"KR"},{"name":"National Police Agency Heliport","code":"N\/A","lat":37.563492,"lng":126.967508,"city":"Seoul","country":"KR"},{"name":"Ace Tower Heliport","code":"N\/A","lat":37.563817,"lng":126.969252,"city":"Seoul","country":"KR"},{"name":"Fraser Palace Central Seoul Heliport","code":"N\/A","lat":37.562876,"lng":126.969714,"city":"Seoul","country":"KR"},{"name":"Chong Kun Dong Building Heliport","code":"N\/A","lat":37.559812,"lng":126.963402,"city":"Seoul","country":"KR"},{"name":"Lee Shi On Building Heliport","code":"N\/A","lat":37.560398,"lng":126.965112,"city":"Seoul","country":"KR"},{"name":"SK Namsan Building Heliport","code":"N\/A","lat":37.556739,"lng":126.975893,"city":"Seoul","country":"KR"},{"name":"Millenium Seoul Hilton Hotel Heliport","code":"N\/A","lat":37.555596,"lng":126.975823,"city":"Seoul","country":"KR"},{"name":"Seoul City Tower Heliport","code":"N\/A","lat":37.554498,"lng":126.97409,"city":"Seoul","country":"KR"},{"name":"LG Innotek Heliport","code":"N\/A","lat":37.55417,"lng":126.974856,"city":"Seoul","country":"KR"},{"name":"T Tower Heliport","code":"N\/A","lat":37.554245,"lng":126.975612,"city":"Seoul","country":"KR"},{"name":"Trapalace Apartments Heliport","code":"N\/A","lat":37.554094,"lng":126.975925,"city":"Seoul","country":"KR"},{"name":"Gateway Tower Heliport","code":"N\/A","lat":37.553762,"lng":126.973557,"city":"Seoul","country":"KR"},{"name":"Daewoo Worldmark Apartments Yongsan Heliports","code":"N\/A","lat":37.537397,"lng":126.973243,"city":"Seoul","country":"KR"},{"name":"Yongsan Park Xi Apartments Heliports","code":"N\/A","lat":37.536872,"lng":126.972545,"city":"Seoul","country":"KR"},{"name":"Daewoo Foundation Building Heliport","code":"N\/A","lat":37.556631,"lng":126.975182,"city":"Seoul","country":"KR"},{"name":"Hangang-ro Byucksan Megatrium 2005 Condominiums Heliports","code":"N\/A","lat":37.53248,"lng":126.970172,"city":"Seoul","country":"KR"},{"name":"LS Yongsan Tower Heliport","code":"N\/A","lat":37.528248,"lng":126.96792,"city":"Seoul","country":"KR"},{"name":"Yongsan City Apartments Heliports","code":"N\/A","lat":37.526228,"lng":126.97022,"city":"Seoul","country":"KR"},{"name":"City Center Apartments Heliports","code":"N\/A","lat":37.525443,"lng":126.968895,"city":"Seoul","country":"KR"},{"name":"Daewoo Trump World III Heliports","code":"N\/A","lat":37.523131,"lng":126.962739,"city":"Seoul","country":"KR"},{"name":"Mapo Trapalace Heliports","code":"N\/A","lat":37.541496,"lng":126.947032,"city":"Seoul","country":"KR"},{"name":"Mapo Employment Center Heliport","code":"N\/A","lat":37.542388,"lng":126.947809,"city":"Seoul","country":"KR"},{"name":"SK Hub Green Apartments Heliport","code":"N\/A","lat":37.542522,"lng":126.948971,"city":"Seoul","country":"KR"},{"name":"Masters Tower Apartments Heliport","code":"N\/A","lat":37.543028,"lng":126.949351,"city":"Seoul","country":"KR"},{"name":"Lotte President Castle Apartments Heliports","code":"N\/A","lat":37.544637,"lng":126.951391,"city":"Seoul","country":"KR"},{"name":"Geomdansan Heliport","code":"N\/A","lat":37.517666,"lng":127.249469,"city":"Baealmi-dong","country":"KR"},{"name":"Jongam-dong Heliport","code":"N\/A","lat":37.600592,"lng":127.026911,"city":"Seoul","country":"KR"},{"name":"Wolgye (2)i-dong Heliport","code":"N\/A","lat":37.638727,"lng":127.046805,"city":"Seoul","country":"KR"},{"name":"Hongjuk-ri Heliport","code":"N\/A","lat":37.80535,"lng":126.947185,"city":"Hongjuk-ri","country":"KR"},{"name":"Yukgok-ri South Heliport","code":"N\/A","lat":37.894224,"lng":126.828909,"city":"Yukgok-ri","country":"KR"},{"name":"Mecenatpolis Heliport","code":"N\/A","lat":37.550669,"lng":126.913439,"city":"Seoul","country":"KR"},{"name":"Seogyo Xi West Valley Apartments Heliports","code":"N\/A","lat":37.551093,"lng":126.914065,"city":"Seoul","country":"KR"},{"name":"LIG Seoul Heliport","code":"N\/A","lat":37.549448,"lng":126.911132,"city":"Seoul","country":"KR"},{"name":"Hongdae Girls High School Heliport","code":"N\/A","lat":37.549636,"lng":126.925039,"city":"Seoul","country":"KR"},{"name":"KODIT Heliport","code":"N\/A","lat":37.545514,"lng":126.952853,"city":"Seoul","country":"KR"},{"name":"Taeyoung Building Heliport","code":"N\/A","lat":37.547068,"lng":126.953742,"city":"Seoul","country":"KR"},{"name":"Seoul Medicare Heliport","code":"N\/A","lat":37.548059,"lng":126.954398,"city":"Seoul","country":"KR"},{"name":"Hyundai Hiel Condominums Heliport","code":"N\/A","lat":37.55018,"lng":126.954482,"city":"Seoul","country":"KR"},{"name":"SK Hub Blue Apartments Heliport","code":"N\/A","lat":37.552159,"lng":126.956571,"city":"Seoul","country":"KR"},{"name":"Yonsei Severance Hospital Foundation Building Heliport","code":"N\/A","lat":37.557254,"lng":126.973649,"city":"Seoul","country":"KR"},{"name":"Yonsei University Severance Hospital Heliport","code":"N\/A","lat":37.562254,"lng":126.940772,"city":"Seoul","country":"KR"},{"name":"YTN New  Square Heliport","code":"N\/A","lat":37.579224,"lng":126.892106,"city":"Seoul","country":"KR"},{"name":"SBS Prism Contents Hub Heliport","code":"N\/A","lat":37.579721,"lng":126.892897,"city":"Seoul","country":"KR"},{"name":"Digital Media City Building Heliport","code":"N\/A","lat":37.578649,"lng":126.892892,"city":"Seoul","country":"KR"},{"name":"CJ E&M Building Heliport","code":"N\/A","lat":37.578456,"lng":126.891333,"city":"Seoul","country":"KR"},{"name":"Heechan Go Building Heliport","code":"N\/A","lat":37.579111,"lng":126.890655,"city":"Seoul","country":"KR"},{"name":"Digital Media City Sungam Branch Building Heliport","code":"N\/A","lat":37.579591,"lng":126.889602,"city":"Seoul","country":"KR"},{"name":"JTBC Building Heliport","code":"N\/A","lat":37.577162,"lng":126.889999,"city":"Seoul (Mapo)","country":"KR"},{"name":"KBS Media Center Heliport","code":"N\/A","lat":37.57642,"lng":126.890904,"city":"Seoul","country":"KR"},{"name":"S-Plex Center Heliport","code":"N\/A","lat":37.575911,"lng":126.890078,"city":"Seoul","country":"KR"},{"name":"Digital Cube Building Heliport","code":"N\/A","lat":37.576273,"lng":126.889059,"city":"Seoul","country":"KR"},{"name":"Seoul World Cup Stadium Heliport","code":"N\/A","lat":37.567833,"lng":126.894751,"city":"Seoul","country":"KR"},{"name":"ROK Ministry of Foreign Affairs Heliport","code":"N\/A","lat":37.573752,"lng":126.974998,"city":"Seoul","country":"KR"},{"name":"Centre Pointe Building Heliport","code":"N\/A","lat":37.573333,"lng":126.974275,"city":"Seoul","country":"KR"},{"name":"Yongbieocheonga Condominiums Heliport","code":"N\/A","lat":37.573542,"lng":126.973135,"city":"Seoul","country":"KR"},{"name":"Gyeonghuiguigung Condominiums Heliports","code":"N\/A","lat":37.574275,"lng":126.971202,"city":"Seoul","country":"KR"},{"name":"Seoul Metropolitan Police Agency Heliport","code":"N\/A","lat":37.574992,"lng":126.971782,"city":"Seoul","country":"KR"},{"name":"ROK Government Complex Heliport","code":"N\/A","lat":37.575095,"lng":126.975158,"city":"Seoul","country":"KR"},{"name":"KT Gwanghwamun Building West Heliport","code":"N\/A","lat":37.572305,"lng":126.977879,"city":"Seoul","country":"KR"},{"name":"Kyobo Building Heliport","code":"N\/A","lat":37.570875,"lng":126.977829,"city":"Seoul","country":"KR"},{"name":"Seoul Four Seasons Hotel Heliport","code":"N\/A","lat":37.570984,"lng":126.9755,"city":"Seoul","country":"KR"},{"name":"Officia Building Heliport","code":"N\/A","lat":37.569952,"lng":126.974911,"city":"Seoul","country":"KR"},{"name":"Gwanghwamun Building Heliport","code":"N\/A","lat":37.569729,"lng":126.976152,"city":"Seoul","country":"KR"},{"name":"Dong-A Ilbo Building Heliport","code":"N\/A","lat":37.569706,"lng":126.977745,"city":"Seoul","country":"KR"},{"name":"Yeongpoong Building Heliport","code":"N\/A","lat":37.56984,"lng":126.982184,"city":"Seoul","country":"KR"},{"name":"Yeongpoong Building Heliport","code":"N\/A","lat":37.56984,"lng":126.982184,"city":"Seoul","country":"KR"},{"name":"Yeongpoong Building Heliport","code":"N\/A","lat":37.56984,"lng":126.982184,"city":"Seoul","country":"KR"},{"name":"Yeongpoong Building Heliport","code":"N\/A","lat":37.56984,"lng":126.982184,"city":"Seoul","country":"KR"},{"name":"Gwanghwamum D Tower Heliports","code":"N\/A","lat":37.571041,"lng":126.978908,"city":"Seoul","country":"KR"},{"name":"K Twin Towers Heliports","code":"N\/A","lat":37.574768,"lng":126.978951,"city":"Seoul","country":"KR"},{"name":"Somerset Palace Seoul Heliport","code":"N\/A","lat":37.575254,"lng":126.981364,"city":"Seoul","country":"KR"},{"name":"Leema Building Heliport","code":"N\/A","lat":37.574017,"lng":126.978991,"city":"Seoul","country":"KR"},{"name":"Gwanghwamun State Tower Building Heliport","code":"N\/A","lat":37.572304,"lng":126.979959,"city":"Seoul","country":"KR"},{"name":"Le Meilleur Jongno Town Apartments Heliport","code":"N\/A","lat":37.570902,"lng":126.979891,"city":"Seoul","country":"KR"},{"name":"Tower 8 Apartments Heliport","code":"N\/A","lat":37.570941,"lng":126.98049,"city":"Seoul","country":"KR"},{"name":"Gran Seoul Office Tower Heliport","code":"N\/A","lat":37.57099,"lng":126.981582,"city":"Seoul","country":"KR"},{"name":"Standard Chartered Bank-Korea Heliport","code":"N\/A","lat":37.571266,"lng":126.982681,"city":"Seoul","country":"KR"},{"name":"Jong-ro Tower Heliport","code":"N\/A","lat":37.571109,"lng":126.98374,"city":"Seoul","country":"KR"},{"name":"Seorin Building Heliport","code":"N\/A","lat":37.570163,"lng":126.980239,"city":"Seoul","country":"KR"},{"name":"Koreana Hotel Heliport","code":"N\/A","lat":37.568468,"lng":126.976598,"city":"Seoul","country":"KR"},{"name":"Seoul Finance Center Heliport","code":"N\/A","lat":37.568615,"lng":126.978331,"city":"Seoul","country":"KR"},{"name":"Hanmi Building Heliport","code":"N\/A","lat":37.56874,"lng":126.98012,"city":"Seoul","country":"KR"},{"name":"ROK Ministry of Culture & Tourism Heliport","code":"N\/A","lat":37.568674,"lng":126.980756,"city":"Seoul","country":"KR"},{"name":"LG Dadong Building Heliport","code":"N\/A","lat":37.568554,"lng":126.982251,"city":"Seoul","country":"KR"},{"name":"Centre Place Heliport","code":"N\/A","lat":37.567323,"lng":126.980348,"city":"Seoul","country":"KR"},{"name":"Kolon Building Heliport","code":"N\/A","lat":37.567873,"lng":126.978747,"city":"Seoul","country":"KR"},{"name":"Korea Press Center Heliport","code":"N\/A","lat":37.567547,"lng":126.977879,"city":"Seoul","country":"KR"},{"name":"President Hotel Heliport","code":"N\/A","lat":37.565753,"lng":126.979464,"city":"Seoul","country":"KR"},{"name":"Bank of Communications Heliport","code":"N\/A","lat":37.566578,"lng":126.981029,"city":"Seoul","country":"KR"},{"name":"Lotte Hotel Seoul Heliports","code":"N\/A","lat":37.565565,"lng":126.980579,"city":"Seoul","country":"KR"},{"name":"Lotte Department Store Heliport","code":"N\/A","lat":37.565044,"lng":126.981601,"city":"Seoul","country":"KR"},{"name":"Lotte Department Store Avenuel Heliport","code":"N\/A","lat":37.564242,"lng":126.981694,"city":"Seoul","country":"KR"},{"name":"Westin Chosun Seoul Hotel Heliport","code":"N\/A","lat":37.564579,"lng":126.979801,"city":"Seoul","country":"KR"},{"name":"Plaza Hotel Seoul Heliport","code":"N\/A","lat":37.564735,"lng":126.978406,"city":"Seoul","country":"KR"},{"name":"Hanhwa Financial Plaza Heliport","code":"N\/A","lat":37.564406,"lng":126.977581,"city":"Seoul","country":"KR"},{"name":"Ferrum Tower Heliport","code":"N\/A","lat":37.567342,"lng":126.984078,"city":"Seoul","country":"KR"},{"name":"Regus Seoul Center 1 Heliport","code":"N\/A","lat":37.567436,"lng":126.985437,"city":"Seoul","country":"KR"},{"name":"Mirae Asset Center 1 Heliport","code":"N\/A","lat":37.5676,"lng":126.984835,"city":"Seoul","country":"KR"},{"name":"ROK Army 53rd Logstics Support Group Heliport","code":"N\/A","lat":36.403103,"lng":127.351137,"city":"Daejon","country":"KR"},{"name":"SK T Tower Heliport","code":"N\/A","lat":37.566773,"lng":126.985318,"city":"Seoul","country":"KR"},{"name":"Hanhwa Corporation Heliport","code":"N\/A","lat":37.567788,"lng":126.986479,"city":"Seoul","country":"KR"},{"name":"Ministry of Employment & Labor Heliport","code":"N\/A","lat":37.567248,"lng":126.987134,"city":"Seoul","country":"KR"},{"name":"Industrial Bank of Korea Heliport","code":"N\/A","lat":37.566642,"lng":126.986239,"city":"Seoul","country":"KR"},{"name":"Samil Building Heliport","code":"N\/A","lat":37.568806,"lng":126.98723,"city":"Seoul","country":"KR"},{"name":"Lotte E&C Apartment Building Heliport","code":"N\/A","lat":37.566743,"lng":126.988058,"city":"Seoul","country":"KR"},{"name":"Lotte City Hotel Myeongdong Heliport","code":"N\/A","lat":37.567217,"lng":126.988101,"city":"Seoul","country":"KR"},{"name":"Signature Towers Heliports","code":"N\/A","lat":37.567661,"lng":126.988193,"city":"Seoul","country":"KR"},{"name":"KEB Hana Bank Heliport","code":"N\/A","lat":37.565707,"lng":126.985211,"city":"Seoul","country":"KR"},{"name":"Industrial Bank of Korea Heliport","code":"N\/A","lat":37.566115,"lng":126.986968,"city":"Seoul","country":"KR"},{"name":"Jae Young Heliport","code":"N\/A","lat":37.565384,"lng":126.986886,"city":"Seoul","country":"KR"},{"name":"Dongbu Fire Building Heliport","code":"N\/A","lat":37.564827,"lng":126.991825,"city":"Seoul","country":"KR"},{"name":"Leisure Town Heliport","code":"N\/A","lat":37.562168,"lng":126.995953,"city":"Seoul","country":"KR"},{"name":"Namsan Central Xii Apartments Heliports","code":"N\/A","lat":37.562656,"lng":126.99756,"city":"Seoul","country":"KR"},{"name":"Kukdong Building Heliport","code":"N\/A","lat":37.562046,"lng":126.991063,"city":"Seoul","country":"KR"},{"name":"CJ Food World Heliport","code":"N\/A","lat":37.564081,"lng":127.003141,"city":"Seoul","country":"KR"},{"name":"Solaria Hotel Heliport","code":"N\/A","lat":37.56283,"lng":126.985271,"city":"Seoul","country":"KR"},{"name":"Freya Tower Heliport","code":"N\/A","lat":37.568933,"lng":127.007908,"city":"Seoul","country":"KR"},{"name":"Migliore Dongdaemun Shopping Center Heliport","code":"N\/A","lat":37.568224,"lng":127.008303,"city":"Seoul","country":"KR"},{"name":"Lotte Castle Cheonjin Apartments Heliports","code":"N\/A","lat":37.573803,"lng":127.016094,"city":"Seoul","country":"KR"},{"name":"Lotte Castle Venetian Apartments Heliports","code":"N\/A","lat":37.571031,"lng":127.021437,"city":"Seoul","country":"KR"},{"name":"Acro Square Apartments Heliport","code":"N\/A","lat":37.566064,"lng":127.021552,"city":"Seoul","country":"KR"},{"name":"Hanyang University Hospital Heliport","code":"N\/A","lat":37.559768,"lng":127.044128,"city":"Seoul","country":"KR"},{"name":"Guri Heliport","code":"N\/A","lat":37.565699,"lng":127.11456,"city":"Guri","country":"KR"},{"name":"Evergreen Tower Heliport","code":"N\/A","lat":37.542691,"lng":127.101502,"city":"Seoul","country":"KR"},{"name":"Samsung Cherville Apartments Heliport","code":"N\/A","lat":37.540381,"lng":127.095454,"city":"Seoul","country":"KR"},{"name":"Prime Center Heliport","code":"N\/A","lat":37.535541,"lng":127.096426,"city":"Seoul","country":"KR"},{"name":"Acroriver Apartment Complex Heliports","code":"N\/A","lat":37.536855,"lng":127.093805,"city":"Seoul","country":"KR"},{"name":"Sharp Star City Apartment Complex Heliports","code":"N\/A","lat":37.53855,"lng":127.072265,"city":"Seoul","country":"KR"},{"name":"The Classic 500 Apartment Complex Heliports","code":"N\/A","lat":37.538997,"lng":127.071079,"city":"Seoul","country":"KR"},{"name":"Samsung Trapalace Apartment Complex Heliport","code":"N\/A","lat":37.531884,"lng":127.068291,"city":"Seoul","country":"KR"},{"name":"Hillstate Apartment Complex Heliport","code":"N\/A","lat":37.541493,"lng":127.051964,"city":"Seoul","country":"KR"},{"name":"Seoul Forest Kolon Digital Tower Heliport","code":"N\/A","lat":37.542737,"lng":127.052196,"city":"Seoul","country":"KR"},{"name":"Shinsegae E-Mart Seongsu Discount Store Heliport","code":"N\/A","lat":37.540153,"lng":127.052831,"city":"Seoul","country":"KR"},{"name":"Academy Tower Heliport","code":"N\/A","lat":37.545355,"lng":127.057828,"city":"Seoul","country":"KR"},{"name":"2001 Fashion & Life Store Heliport","code":"N\/A","lat":37.541354,"lng":127.126587,"city":"Seoul","country":"KR"},{"name":"Daewoo Han River Benesse Apartments Heliport","code":"N\/A","lat":37.540713,"lng":127.12574,"city":"Seoul","country":"KR"},{"name":"Prague Theater Wedding Heliport","code":"N\/A","lat":37.536156,"lng":127.13415,"city":"Seoul","country":"KR"},{"name":"Familie Apartments Heliports","code":"N\/A","lat":37.5372,"lng":127.134618,"city":"Seoul","country":"KR"},{"name":"Hanshin Jamsil Koa Apartments Heliport","code":"N\/A","lat":37.516428,"lng":127.104216,"city":"Seoul","country":"KR"},{"name":"Jamsil Shop Star Park Apartments Heliports","code":"N\/A","lat":37.516972,"lng":127.102008,"city":"Seoul","country":"KR"},{"name":"Samsung SDS HQ Heliport","code":"N\/A","lat":37.516736,"lng":127.101409,"city":"Seoul","country":"KR"},{"name":"Hanbat Plaza Heliport","code":"N\/A","lat":37.515498,"lng":127.099855,"city":"Seoul","country":"KR"},{"name":"World Tower Heliport","code":"N\/A","lat":37.515376,"lng":127.100145,"city":"Seoul","country":"KR"},{"name":"Lotte Castle Apartments Heliports","code":"N\/A","lat":37.515047,"lng":127.101109,"city":"Seoul","country":"KR"},{"name":"Hyundai Tower Apartments Heliport","code":"N\/A","lat":37.514911,"lng":127.103146,"city":"Seoul","country":"KR"},{"name":"Luther Center Heliport","code":"N\/A","lat":37.51552,"lng":127.103166,"city":"Seoul","country":"KR"},{"name":"Ssangyong Engineering & Construction Company Heliport","code":"N\/A","lat":37.515435,"lng":127.103789,"city":"Seoul","country":"KR"},{"name":"Lotte Hotel World Heliport","code":"N\/A","lat":37.511393,"lng":127.099821,"city":"Seoul","country":"KR"},{"name":"Lotte Department Store Jamsil Heliport","code":"N\/A","lat":37.512386,"lng":127.099031,"city":"Seoul","country":"KR"},{"name":"Star River Apartments Heliport","code":"N\/A","lat":37.517923,"lng":127.105334,"city":"Seoul","country":"KR"},{"name":"I\u2019Space Apartments Heliport","code":"N\/A","lat":37.517078,"lng":127.106113,"city":"Seoul","country":"KR"},{"name":"Galleria Palace Tower A Heliport","code":"N\/A","lat":37.511419,"lng":127.093988,"city":"Seoul","country":"KR"},{"name":"National Intelligence Service Heliport","code":"N\/A","lat":37.465398,"lng":127.077511,"city":"Seoul","country":"KR"},{"name":"Residencia Apartments Heliports","code":"N\/A","lat":37.518589,"lng":126.93931,"city":"Seoul","country":"KR"},{"name":"Life Combi Apartments Heliport","code":"N\/A","lat":37.519,"lng":126.939012,"city":"Seoul","country":"KR"},{"name":"Brown Stone Apartments Heliport","code":"N\/A","lat":37.519658,"lng":126.938644,"city":"Seoul","country":"KR"},{"name":"Daewoo Trump World II Heliports","code":"N\/A","lat":37.517736,"lng":126.927589,"city":"Seoul","country":"KR"},{"name":"Daewoo Trump World I Heliports","code":"N\/A","lat":37.517785,"lng":126.931964,"city":"Seoul","country":"KR"},{"name":"Yeouido Xi Apartments Heliports","code":"N\/A","lat":37.518104,"lng":126.925977,"city":"Seoul","country":"KR"},{"name":"Alianz Life Marketing Building Heliport","code":"N\/A","lat":37.518997,"lng":126.927739,"city":"Seoul","country":"KR"},{"name":"Korea Financial Investment Association Heliport","code":"N\/A","lat":37.519172,"lng":126.927609,"city":"Seoul","country":"KR"},{"name":"Lotte Castle Empire Apartments Heliports","code":"N\/A","lat":37.520261,"lng":126.926596,"city":"Seoul","country":"KR"},{"name":"Yeouido Department Store Heliport","code":"N\/A","lat":37.52077,"lng":126.927028,"city":"Seoul","country":"KR"},{"name":"Kookmin Bank HQ Heliport","code":"N\/A","lat":37.521006,"lng":126.92781,"city":"Seoul","country":"KR"},{"name":"Korea Insurance Development Institute (KIDI) Heliport","code":"N\/A","lat":37.521558,"lng":126.92598,"city":"Seoul","country":"KR"},{"name":"Korea Stock Exchange (KRX) Heliport","code":"N\/A","lat":37.522623,"lng":126.927569,"city":"Seoul","country":"KR"},{"name":"KOSCOM Heliport","code":"N\/A","lat":37.523588,"lng":126.928517,"city":"Seoul","country":"KR"},{"name":"Mirae Asset Daewoo Yeouido Heliport","code":"N\/A","lat":37.522455,"lng":126.929759,"city":"Seoul","country":"KR"},{"name":"Nong Hyup Foundation Heliport","code":"N\/A","lat":37.522137,"lng":126.930048,"city":"Seoul","country":"KR"},{"name":"Miwon Building Heliport","code":"N\/A","lat":37.521583,"lng":126.930719,"city":"Seoul","country":"KR"},{"name":"Kyobo Securities Building Heliport","code":"N\/A","lat":37.522698,"lng":126.924577,"city":"Seoul","country":"KR"},{"name":"S-Trenue Building Heliport","code":"N\/A","lat":37.52282,"lng":126.924056,"city":"Seoul","country":"KR"},{"name":"Hanjin Shipping Building Heliport","code":"N\/A","lat":37.523543,"lng":126.925512,"city":"Seoul","country":"KR"},{"name":"Coryo Finance Center Heliport","code":"N\/A","lat":37.523348,"lng":126.923429,"city":"Seoul","country":"KR"},{"name":"Samsung Life Insurance Building Heliport","code":"N\/A","lat":37.523769,"lng":126.923869,"city":"Seoul","country":"KR"},{"name":"HMC Building Heliport","code":"N\/A","lat":37.523957,"lng":126.924129,"city":"Seoul","country":"KR"},{"name":"SKC Chemical Division HQ Heliport","code":"N\/A","lat":37.52429,"lng":126.924392,"city":"Seoul","country":"KR"},{"name":"KMI Building Heliport","code":"N\/A","lat":37.524411,"lng":126.924787,"city":"Seoul","country":"KR"},{"name":"Three International Finance Centre Heliport","code":"N\/A","lat":37.524976,"lng":126.925807,"city":"Seoul","country":"KR"},{"name":"Shinhan Good Morning Securities Heliport","code":"N\/A","lat":37.524835,"lng":126.924181,"city":"Seoul","country":"KR"},{"name":"Hana Securities Building Heliport","code":"N\/A","lat":37.524535,"lng":126.923705,"city":"Seoul","country":"KR"},{"name":"Hyundai Securities Heliport","code":"N\/A","lat":37.524233,"lng":126.923217,"city":"Seoul","country":"KR"},{"name":"Hanhwa Securities Heliport","code":"N\/A","lat":37.524047,"lng":126.922862,"city":"Seoul","country":"KR"},{"name":"Financial Supervisory Service Heliport","code":"N\/A","lat":37.523237,"lng":126.921245,"city":"Seoul","country":"KR"},{"name":"Hana Financial Investment Company Heliport","code":"N\/A","lat":37.522876,"lng":126.92196,"city":"Seoul","country":"KR"},