[{"name":"Akpaka Airport","code":"N\/A","lat":7.583000183105469,"lng":1.1169999837875366,"city":"Atakpam\u00e9","country":"TG"},{"name":"Djangou Airport","code":"N\/A","lat":10.800417,"lng":0.242372,"city":"Dapaong","country":"TG"},{"name":"Kolokope Airport","code":"N\/A","lat":7.803451,"lng":1.295966,"city":"Ani\u00e9","country":"TG"},{"name":"Sansann\u00e9-Mango Airport","code":"N\/A","lat":10.373010635375977,"lng":0.47138214111328125,"city":"Mango","country":"TG"},{"name":"Niamtougou International Airport","code":"LRL","lat":9.767330169677734,"lng":1.091249942779541,"city":"Niamtougou","country":"TG"},{"name":"Sokod\u00e9 Airport","code":"N\/A","lat":8.994275,"lng":1.153004,"city":"Sokod\u00e9","country":"TG"},{"name":"Lom\u00e9\u2013Tokoin International Airport","code":"LFW","lat":6.16561,"lng":1.25451,"city":"Lom\u00e9","country":"TG"}]